{
  "type": "FeatureCollection",
  "features": [
    {
      "type": "Feature",
      "properties": {
        "Water System Name": "21 PALMS RV RESORT",
        "Population Served": 200,
        "City": "DAVENPORT"
      },
      "geometry": {
        "type": "Point",
        "coordinates": [
          -81.6017417,
          28.1614046
        ]
      }
    },
    {
      "type": "Feature",
      "properties": {
        "Water System Name": "242 VILLAGE SUBDIVISION",
        "Population Served": 121,
        "City": "LAKE CITY"
      },
      "geometry": {
        "type": "Point",
        "coordinates": [
          -82.6394803,
          30.1894252
        ]
      }
    },
    {
      "type": "Feature",
      "properties": {
        "Water System Name": "42ND STREET APARTMENTS",
        "Population Served": 160,
        "City": "TAMPA"
      },
      "geometry": {
        "type": "Point",
        "coordinates": [
          -82.458444,
          27.9477595
        ]
      }
    },
    {
      "type": "Feature",
      "properties": {
        "Water System Name": "ADVENT CHRISTIAN VILLAGE",
        "Population Served": 784,
        "City": "DOWLING PARK"
      },
      "geometry": {
        "type": "Point",
        "coordinates": [
          -83.2360852,
          30.2434422
        ]
      }
    },
    {
      "type": "Feature",
      "properties": {
        "Water System Name": "AGAVE MANAGEMENT DUPLEXES",
        "Population Served": 40,
        "City": "LEESBURG"
      },
      "geometry": {
        "type": "Point",
        "coordinates": [
          -81.8778582,
          28.810823
        ]
      }
    },
    {
      "type": "Feature",
      "properties": {
        "Water System Name": "ALACHUA WTP",
        "Population Served": 8220,
        "City": "ALACHUA"
      },
      "geometry": {
        "type": "Point",
        "coordinates": [
          -82.4875131,
          29.7895372
        ]
      }
    },
    {
      "type": "Feature",
      "properties": {
        "Water System Name": "ALFORD, TOWN OF",
        "Population Served": 497,
        "City": "ALFORD"
      },
      "geometry": {
        "type": "Point",
        "coordinates": [
          -85.3918968,
          30.6936569
        ]
      }
    },
    {
      "type": "Feature",
      "properties": {
        "Water System Name": "ALLIGATOR POINT WATER RESOURCE DISTRICT",
        "Population Served": 1400,
        "City": "PANACEA"
      },
      "geometry": {
        "type": "Point",
        "coordinates": [
          -84.3876768,
          30.0374268
        ]
      }
    },
    {
      "type": "Feature",
      "properties": {
        "Water System Name": "ALOHA GARDENS UTILITIES",
        "Population Served": 8136,
        "City": "NEW PORT RICHEY"
      },
      "geometry": {
        "type": "Point",
        "coordinates": [
          -82.7192671,
          28.2441768
        ]
      }
    },
    {
      "type": "Feature",
      "properties": {
        "Water System Name": "ALTAMONTE SPRINGS WATER DEPT (2 WPS)",
        "Population Served": 51000,
        "City": "ALTAMONTE SPRINGS"
      },
      "geometry": {
        "type": "Point",
        "coordinates": [
          -81.3885899,
          28.6619154
        ]
      }
    },
    {
      "type": "Feature",
      "properties": {
        "Water System Name": "ALTHA, TOWN OF WATER SYSTEM",
        "Population Served": 800,
        "City": "ALTHA"
      },
      "geometry": {
        "type": "Point",
        "coordinates": [
          -85.1271442,
          30.5704721
        ]
      }
    },
    {
      "type": "Feature",
      "properties": {
        "Water System Name": "ALTURAS WATER, LLC",
        "Population Served": 300,
        "City": "ALTURAS"
      },
      "geometry": {
        "type": "Point",
        "coordinates": [
          -81.7150798,
          27.871693
        ]
      }
    },
    {
      "type": "Feature",
      "properties": {
        "Water System Name": "AMERICANA VILLAGE",
        "Population Served": 2100,
        "City": "MIAMI"
      },
      "geometry": {
        "type": "Point",
        "coordinates": [
          -80.19362,
          25.7741728
        ]
      }
    },
    {
      "type": "Feature",
      "properties": {
        "Water System Name": "ANCIENT OAKS RV RESORT",
        "Population Served": 745,
        "City": "OKEECHOBEE"
      },
      "geometry": {
        "type": "Point",
        "coordinates": [
          -80.8287487,
          27.2436957
        ]
      }
    },
    {
      "type": "Feature",
      "properties": {
        "Water System Name": "ANCLOTE VILLAGE",
        "Population Served": 1257,
        "City": "NEW PORT RICHEY"
      },
      "geometry": {
        "type": "Point",
        "coordinates": [
          -82.7192671,
          28.2441768
        ]
      }
    },
    {
      "type": "Feature",
      "properties": {
        "Water System Name": "ANGUS VALLEY",
        "Population Served": 1500,
        "City": "WESLEY CHAPEL"
      },
      "geometry": {
        "type": "Point",
        "coordinates": [
          -82.36612097,
          28.1866014
        ]
      }
    },
    {
      "type": "Feature",
      "properties": {
        "Water System Name": "ANNAWOOD SUBDIVISION",
        "Population Served": 99,
        "City": "TALLAHASSEE"
      },
      "geometry": {
        "type": "Point",
        "coordinates": [
          -84.2809332,
          30.4380832
        ]
      }
    },
    {
      "type": "Feature",
      "properties": {
        "Water System Name": "APALACHEE CORRECTIONAL INSTITUTION",
        "Population Served": 1756,
        "City": "SNEADS"
      },
      "geometry": {
        "type": "Point",
        "coordinates": [
          -84.9244479,
          30.7075911
        ]
      }
    },
    {
      "type": "Feature",
      "properties": {
        "Water System Name": "APALACHICOLA, CITY OF",
        "Population Served": 4500,
        "City": "APALACHICOLA"
      },
      "geometry": {
        "type": "Point",
        "coordinates": [
          -84.9827725,
          29.7255084
        ]
      }
    },
    {
      "type": "Feature",
      "properties": {
        "Water System Name": "APOPKA, CITY OF (5 WTPS)",
        "Population Served": 59113,
        "City": "APOPKA"
      },
      "geometry": {
        "type": "Point",
        "coordinates": [
          -81.511398,
          28.678013
        ]
      }
    },
    {
      "type": "Feature",
      "properties": {
        "Water System Name": "APPLEGATE MOBILE HOME COMMUNITY",
        "Population Served": 275,
        "City": "DELAND"
      },
      "geometry": {
        "type": "Point",
        "coordinates": [
          -81.3034183,
          29.0281051
        ]
      }
    },
    {
      "type": "Feature",
      "properties": {
        "Water System Name": "APPLE VALLEY (CONSEC)",
        "Population Served": 3269,
        "City": "ALTAMONTE SPRINGS"
      },
      "geometry": {
        "type": "Point",
        "coordinates": [
          -81.3885899,
          28.6619154
        ]
      }
    },
    {
      "type": "Feature",
      "properties": {
        "Water System Name": "AQUARINA UTILITIES",
        "Population Served": 750,
        "City": "MELBOURNE BEACH"
      },
      "geometry": {
        "type": "Point",
        "coordinates": [
          -80.5607951,
          28.0684067
        ]
      }
    },
    {
      "type": "Feature",
      "properties": {
        "Water System Name": "ARCADIA WATER DEPT, CITY OF",
        "Population Served": 8942,
        "City": "ARCADIA"
      },
      "geometry": {
        "type": "Point",
        "coordinates": [
          -81.8584164,
          27.2158826
        ]
      }
    },
    {
      "type": "Feature",
      "properties": {
        "Water System Name": "ARCHER WATER SYSTEM",
        "Population Served": 1440,
        "City": "ARCHER"
      },
      "geometry": {
        "type": "Point",
        "coordinates": [
          -82.5189969,
          29.5299677
        ]
      }
    },
    {
      "type": "Feature",
      "properties": {
        "Water System Name": "ARGYLE WATER SYSTEM, INC.",
        "Population Served": 1157,
        "City": "DEFUNIAK SPRINGS"
      },
      "geometry": {
        "type": "Point",
        "coordinates": [
          -86.1152184,
          30.7210227
        ]
      }
    },
    {
      "type": "Feature",
      "properties": {
        "Water System Name": "ARREDONDO ESTATES",
        "Population Served": 738,
        "City": "GAINESVILLE"
      },
      "geometry": {
        "type": "Point",
        "coordinates": [
          -82.3249846,
          29.6519684
        ]
      }
    },
    {
      "type": "Feature",
      "properties": {
        "Water System Name": "ARROWHEAD CAMPSITES ; MHP",
        "Population Served": 99,
        "City": "OCALA"
      },
      "geometry": {
        "type": "Point",
        "coordinates": [
          -82.1400923,
          29.1871986
        ]
      }
    },
    {
      "type": "Feature",
      "properties": {
        "Water System Name": "ARROW LEE APARTMENTS",
        "Population Served": 70,
        "City": "WINTER HAVEN"
      },
      "geometry": {
        "type": "Point",
        "coordinates": [
          -81.7328568,
          28.0222435
        ]
      }
    },
    {
      "type": "Feature",
      "properties": {
        "Water System Name": "ASHLEY FARMS",
        "Population Served": 5054,
        "City": "OCALA"
      },
      "geometry": {
        "type": "Point",
        "coordinates": [
          -82.1400923,
          29.1871986
        ]
      }
    },
    {
      "type": "Feature",
      "properties": {
        "Water System Name": "ASHLEY HEIGHTS S/D",
        "Population Served": 123,
        "City": "OCALA"
      },
      "geometry": {
        "type": "Point",
        "coordinates": [
          -82.1400923,
          29.1871986
        ]
      }
    },
    {
      "type": "Feature",
      "properties": {
        "Water System Name": "ASHLEY OAKS MOBILE HOME PARK",
        "Population Served": 60,
        "City": "TAMPA"
      },
      "geometry": {
        "type": "Point",
        "coordinates": [
          -82.458444,
          27.9477595
        ]
      }
    },
    {
      "type": "Feature",
      "properties": {
        "Water System Name": "ATLANTIC BEACH WATER SYSTEM",
        "Population Served": 23503,
        "City": "ATLANTIC BEACH"
      },
      "geometry": {
        "type": "Point",
        "coordinates": [
          -81.398696,
          30.3344077
        ]
      }
    },
    {
      "type": "Feature",
      "properties": {
        "Water System Name": "ATLANTIS, CITY OF",
        "Population Served": 3000,
        "City": "ATLANTIS"
      },
      "geometry": {
        "type": "Point",
        "coordinates": [
          -80.1008762,
          26.5909025
        ]
      }
    },
    {
      "type": "Feature",
      "properties": {
        "Water System Name": "AUBURNDALE, CITY OF",
        "Population Served": 35239,
        "City": "AUBURNDALE"
      },
      "geometry": {
        "type": "Point",
        "coordinates": [
          -81.7888642,
          28.0653422
        ]
      }
    },
    {
      "type": "Feature",
      "properties": {
        "Water System Name": "AUBURN WATER SYSTEM",
        "Population Served": 22903,
        "City": "CRESTVIEW"
      },
      "geometry": {
        "type": "Point",
        "coordinates": [
          -86.5705084,
          30.7621326
        ]
      }
    },
    {
      "type": "Feature",
      "properties": {
        "Water System Name": "AURORA ACRES",
        "Population Served": 170,
        "City": "INGLIS"
      },
      "geometry": {
        "type": "Point",
        "coordinates": [
          -82.6687161,
          29.0302514
        ]
      }
    },
    {
      "type": "Feature",
      "properties": {
        "Water System Name": "AVALON HILLS",
        "Population Served": 300,
        "City": "LECANTO"
      },
      "geometry": {
        "type": "Point",
        "coordinates": [
          -82.4875982,
          28.8516486
        ]
      }
    },
    {
      "type": "Feature",
      "properties": {
        "Water System Name": "AVE MARIA UTILITY COMPANY, LLLP",
        "Population Served": 9082,
        "City": "AVE MARIA"
      },
      "geometry": {
        "type": "Point",
        "coordinates": [
          -81.4380556,
          26.3366667
        ]
      }
    },
    {
      "type": "Feature",
      "properties": {
        "Water System Name": "AVON PARK, CITY OF",
        "Population Served": 19361,
        "City": "AVON PARK"
      },
      "geometry": {
        "type": "Point",
        "coordinates": [
          -81.5060858,
          27.5960827
        ]
      }
    },
    {
      "type": "Feature",
      "properties": {
        "Water System Name": "AVON PARK CORRECTIONAL INSTITUTION",
        "Population Served": 3000,
        "City": "AVON PARK"
      },
      "geometry": {
        "type": "Point",
        "coordinates": [
          -81.5060858,
          27.5960827
        ]
      }
    },
    {
      "type": "Feature",
      "properties": {
        "Water System Name": "AYLA APARTMENTS",
        "Population Served": 1344,
        "City": "TAMPA"
      },
      "geometry": {
        "type": "Point",
        "coordinates": [
          -82.458444,
          27.9477595
        ]
      }
    },
    {
      "type": "Feature",
      "properties": {
        "Water System Name": "AZALEA PARK SUBDIVISION",
        "Population Served": 206,
        "City": "LAKE CITY"
      },
      "geometry": {
        "type": "Point",
        "coordinates": [
          -82.6394803,
          30.1894252
        ]
      }
    },
    {
      "type": "Feature",
      "properties": {
        "Water System Name": "BABSON PARK",
        "Population Served": 2161,
        "City": "BABSON PARK"
      },
      "geometry": {
        "type": "Point",
        "coordinates": [
          -81.5222975,
          27.8319708
        ]
      }
    },
    {
      "type": "Feature",
      "properties": {
        "Water System Name": "BAGDAD-GARCON POINT WATER SYSTEM",
        "Population Served": 10896,
        "City": "MILTON"
      },
      "geometry": {
        "type": "Point",
        "coordinates": [
          -87.0396881,
          30.6324149
        ]
      }
    },
    {
      "type": "Feature",
      "properties": {
        "Water System Name": "BAHIA OAKS (CONSEC.)",
        "Population Served": 1200,
        "City": "OCALA"
      },
      "geometry": {
        "type": "Point",
        "coordinates": [
          -82.1400923,
          29.1871986
        ]
      }
    },
    {
      "type": "Feature",
      "properties": {
        "Water System Name": "BAILEY PLACE MHP",
        "Population Served": 150,
        "City": "MULBERRY"
      },
      "geometry": {
        "type": "Point",
        "coordinates": [
          -81.9734172,
          27.8953038
        ]
      }
    },
    {
      "type": "Feature",
      "properties": {
        "Water System Name": "BAKER CI",
        "Population Served": 1500,
        "City": "SANDERSON"
      },
      "geometry": {
        "type": "Point",
        "coordinates": [
          -82.2728938,
          30.2521786
        ]
      }
    },
    {
      "type": "Feature",
      "properties": {
        "Water System Name": "BAKER WATER SYSTEM, INC.",
        "Population Served": 2930,
        "City": "BAKER"
      },
      "geometry": {
        "type": "Point",
        "coordinates": [
          -86.681691,
          30.7972254
        ]
      }
    },
    {
      "type": "Feature",
      "properties": {
        "Water System Name": "BALDWIN WATER SYSTEM",
        "Population Served": 1790,
        "City": "BALDWIN"
      },
      "geometry": {
        "type": "Point",
        "coordinates": [
          -81.9753865,
          30.3027384
        ]
      }
    },
    {
      "type": "Feature",
      "properties": {
        "Water System Name": "BAL HARBOUR VILLAGE",
        "Population Served": 3209,
        "City": "BAL HARBOUR"
      },
      "geometry": {
        "type": "Point",
        "coordinates": [
          -80.1269896,
          25.8917613
        ]
      }
    },
    {
      "type": "Feature",
      "properties": {
        "Water System Name": "BARCELONA APARTMENTS",
        "Population Served": 56,
        "City": "JACKSONVILLE"
      },
      "geometry": {
        "type": "Point",
        "coordinates": [
          -81.655651,
          30.3321838
        ]
      }
    },
    {
      "type": "Feature",
      "properties": {
        "Water System Name": "BAREFOOT BAY",
        "Population Served": 9648,
        "City": "BAREFOOT BAY"
      },
      "geometry": {
        "type": "Point",
        "coordinates": [
          -81.54275824,
          28.36019675
        ]
      }
    },
    {
      "type": "Feature",
      "properties": {
        "Water System Name": "BARRINGTON HOA",
        "Population Served": 130,
        "City": "DOVER"
      },
      "geometry": {
        "type": "Point",
        "coordinates": [
          -82.2195344,
          27.9941885
        ]
      }
    },
    {
      "type": "Feature",
      "properties": {
        "Water System Name": "BARTOW, CITY OF",
        "Population Served": 21501,
        "City": "BARTOW"
      },
      "geometry": {
        "type": "Point",
        "coordinates": [
          -81.8431567,
          27.8963791
        ]
      }
    },
    {
      "type": "Feature",
      "properties": {
        "Water System Name": "BASS CAPITAL MHP",
        "Population Served": 99,
        "City": "CRESCENT CITY"
      },
      "geometry": {
        "type": "Point",
        "coordinates": [
          -81.5106288,
          29.4302514
        ]
      }
    },
    {
      "type": "Feature",
      "properties": {
        "Water System Name": "BAY COUNTY WATER SYSTEM",
        "Population Served": 39192,
        "City": "PANAMA CITY"
      },
      "geometry": {
        "type": "Point",
        "coordinates": [
          -85.6602936,
          30.1586518
        ]
      }
    },
    {
      "type": "Feature",
      "properties": {
        "Water System Name": "BAY HILLS VILLAGE CONDO ASSOCIATION",
        "Population Served": 218,
        "City": "THONOTOSASSA"
      },
      "geometry": {
        "type": "Point",
        "coordinates": [
          -82.3023128,
          28.0614065
        ]
      }
    },
    {
      "type": "Feature",
      "properties": {
        "Water System Name": "BAYSIDE ESTATES WTP",
        "Population Served": 180,
        "City": "FRUIT COVE"
      },
      "geometry": {
        "type": "Point",
        "coordinates": [
          -81.6184195,
          30.1012477
        ]
      }
    },
    {
      "type": "Feature",
      "properties": {
        "Water System Name": "BAYWOOD CONDOMINIUMS",
        "Population Served": 200,
        "City": "MT DORA"
      },
      "geometry": {
        "type": "Point",
        "coordinates": [
          -81.6446961,
          28.8004955
        ]
      }
    },
    {
      "type": "Feature",
      "properties": {
        "Water System Name": "BCWWS 1A",
        "Population Served": 75305,
        "City": "LAUDERDALE LAKES"
      },
      "geometry": {
        "type": "Point",
        "coordinates": [
          -80.2085565,
          26.1667184
        ]
      }
    },
    {
      "type": "Feature",
      "properties": {
        "Water System Name": "BCWWS 2A",
        "Population Served": 54622,
        "City": "POMPANO BEACH"
      },
      "geometry": {
        "type": "Point",
        "coordinates": [
          -80.1247667,
          26.2378597
        ]
      }
    },
    {
      "type": "Feature",
      "properties": {
        "Water System Name": "BCWWS 3A",
        "Population Served": 16046,
        "City": "FT LAUDERDALE"
      },
      "geometry": {
        "type": "Point",
        "coordinates": [
          -80.1433786,
          26.1223084
        ]
      }
    },
    {
      "type": "Feature",
      "properties": {
        "Water System Name": "BCWWS 3B/C",
        "Population Served": 32650,
        "City": "MIRAMAR"
      },
      "geometry": {
        "type": "Point",
        "coordinates": [
          -80.2322706,
          25.9873137
        ]
      }
    },
    {
      "type": "Feature",
      "properties": {
        "Water System Name": "BEAR LAKE MANOR",
        "Population Served": 777,
        "City": "APOPKA"
      },
      "geometry": {
        "type": "Point",
        "coordinates": [
          -81.511398,
          28.678013
        ]
      }
    },
    {
      "type": "Feature",
      "properties": {
        "Water System Name": "BEDROCK COUNTRY SQUIRE",
        "Population Served": 240,
        "City": "PAISLEY"
      },
      "geometry": {
        "type": "Point",
        "coordinates": [
          -81.5417151,
          28.9836055
        ]
      }
    },
    {
      "type": "Feature",
      "properties": {
        "Water System Name": "BEDROCK EMERALD LAKE LLC",
        "Population Served": 250,
        "City": "DAVENPORT"
      },
      "geometry": {
        "type": "Point",
        "coordinates": [
          -81.6017417,
          28.1614046
        ]
      }
    },
    {
      "type": "Feature",
      "properties": {
        "Water System Name": "BEDROCK LITTLE MANATEE",
        "Population Served": 140,
        "City": "RUSKIN"
      },
      "geometry": {
        "type": "Point",
        "coordinates": [
          -82.4331528,
          27.7208575
        ]
      }
    },
    {
      "type": "Feature",
      "properties": {
        "Water System Name": "BEECHER'S POINT S/D",
        "Population Served": 189,
        "City": "WELAKA"
      },
      "geometry": {
        "type": "Point",
        "coordinates": [
          -81.6714687,
          29.4791378
        ]
      }
    },
    {
      "type": "Feature",
      "properties": {
        "Water System Name": "BEE'S RV RESORT",
        "Population Served": 158,
        "City": "CLERMONT"
      },
      "geometry": {
        "type": "Point",
        "coordinates": [
          -81.7669488,
          28.5551912
        ]
      }
    },
    {
      "type": "Feature",
      "properties": {
        "Water System Name": "BELLEAIR SUBDIVISION (CONSEC)",
        "Population Served": 763,
        "City": "OCALA"
      },
      "geometry": {
        "type": "Point",
        "coordinates": [
          -82.1400923,
          29.1871986
        ]
      }
    },
    {
      "type": "Feature",
      "properties": {
        "Water System Name": "BELLEAIR WATER PLANT",
        "Population Served": 5299,
        "City": "BELLEAIR"
      },
      "geometry": {
        "type": "Point",
        "coordinates": [
          -82.8062139,
          27.9358543
        ]
      }
    },
    {
      "type": "Feature",
      "properties": {
        "Water System Name": "BELLE OAKS WTP",
        "Population Served": 60,
        "City": "JACKSONVILLE"
      },
      "geometry": {
        "type": "Point",
        "coordinates": [
          -81.655651,
          30.3321838
        ]
      }
    },
    {
      "type": "Feature",
      "properties": {
        "Water System Name": "BELLEVIEW, CITY OF  (3 WPS)",
        "Population Served": 9358,
        "City": "BELLEVIEW"
      },
      "geometry": {
        "type": "Point",
        "coordinates": [
          -82.0495108,
          29.0625783
        ]
      }
    },
    {
      "type": "Feature",
      "properties": {
        "Water System Name": "BELLEVIEW HILLS ESTATES",
        "Population Served": 523,
        "City": "SUMMERFIELD"
      },
      "geometry": {
        "type": "Point",
        "coordinates": [
          -82.0348092,
          29.0085924
        ]
      }
    },
    {
      "type": "Feature",
      "properties": {
        "Water System Name": "BELLEVIEW HILLS SUBDIVISION (CONSEC)",
        "Population Served": 378,
        "City": "BELLEVIEW"
      },
      "geometry": {
        "type": "Point",
        "coordinates": [
          -82.0495108,
          29.0625783
        ]
      }
    },
    {
      "type": "Feature",
      "properties": {
        "Water System Name": "BELLEVIEW OAKS ESTATES",
        "Population Served": 220,
        "City": "BELLEVIEW"
      },
      "geometry": {
        "type": "Point",
        "coordinates": [
          -82.0495108,
          29.0625783
        ]
      }
    },
    {
      "type": "Feature",
      "properties": {
        "Water System Name": "BENTONWOOD",
        "Population Served": 80,
        "City": "FORT PIERCE"
      },
      "geometry": {
        "type": "Point",
        "coordinates": [
          -80.3256056,
          27.4467056
        ]
      }
    },
    {
      "type": "Feature",
      "properties": {
        "Water System Name": "BENTWOOD SUBDIVISION",
        "Population Served": 60,
        "City": "LEESBRUG"
      },
      "geometry": {
        "type": "Point",
        "coordinates": [
          -81.769611,
          27.97762
        ]
      }
    },
    {
      "type": "Feature",
      "properties": {
        "Water System Name": "BERMUDA MOBILE HOME PARK",
        "Population Served": 48,
        "City": "KISSIMMEE"
      },
      "geometry": {
        "type": "Point",
        "coordinates": [
          -81.4075838,
          28.2918995
        ]
      }
    },
    {
      "type": "Feature",
      "properties": {
        "Water System Name": "BERRYDALE WATER SYSTEM",
        "Population Served": 2800,
        "City": "MILTON"
      },
      "geometry": {
        "type": "Point",
        "coordinates": [
          -87.0396881,
          30.6324149
        ]
      }
    },
    {
      "type": "Feature",
      "properties": {
        "Water System Name": "BEVERLY BEACH WATER SYSTEM",
        "Population Served": 1413,
        "City": "BEVERLY BEACH"
      },
      "geometry": {
        "type": "Point",
        "coordinates": [
          -81.1445045,
          29.5146969
        ]
      }
    },
    {
      "type": "Feature",
      "properties": {
        "Water System Name": "BIG BEND WATER AUTHORITY",
        "Population Served": 2700,
        "City": "STEINHATCHEE"
      },
      "geometry": {
        "type": "Point",
        "coordinates": [
          -83.3758593,
          29.6720821
        ]
      }
    },
    {
      "type": "Feature",
      "properties": {
        "Water System Name": "BIG CYPRESS  PARK HEADQUARTERS",
        "Population Served": 100,
        "City": "OCHOPEE"
      },
      "geometry": {
        "type": "Point",
        "coordinates": [
          -81.3034103,
          25.9014871
        ]
      }
    },
    {
      "type": "Feature",
      "properties": {
        "Water System Name": "BIG OAKS MOBILE HOME PARK",
        "Population Served": 125,
        "City": "ORLANDO"
      },
      "geometry": {
        "type": "Point",
        "coordinates": [
          -81.3790304,
          28.5421109
        ]
      }
    },
    {
      "type": "Feature",
      "properties": {
        "Water System Name": "BIG PINE ACRES",
        "Population Served": 70,
        "City": "LECANTO"
      },
      "geometry": {
        "type": "Point",
        "coordinates": [
          -82.4875982,
          28.8516486
        ]
      }
    },
    {
      "type": "Feature",
      "properties": {
        "Water System Name": "BIG TREE MOBILE HOME ; RV VILLAGE",
        "Population Served": 200,
        "City": "BROOKSVILLE"
      },
      "geometry": {
        "type": "Point",
        "coordinates": [
          -82.3878709,
          28.5552719
        ]
      }
    },
    {
      "type": "Feature",
      "properties": {
        "Water System Name": "BISHOPS GATE PROPERTY COMPANY, LLC",
        "Population Served": 244,
        "City": "HOWEY-IN-THE-HILLS"
      },
      "geometry": {
        "type": "Point",
        "coordinates": [
          -81.7734106,
          28.7169384
        ]
      }
    },
    {
      "type": "Feature",
      "properties": {
        "Water System Name": "BLACK BEAR RESERVE",
        "Population Served": 625,
        "City": "EUSTIS"
      },
      "geometry": {
        "type": "Point",
        "coordinates": [
          -81.6853534,
          28.8527675
        ]
      }
    },
    {
      "type": "Feature",
      "properties": {
        "Water System Name": "BLACK DAIRY ROAD TP",
        "Population Served": 80,
        "City": "SEFFNER"
      },
      "geometry": {
        "type": "Point",
        "coordinates": [
          -82.2756468,
          27.9836329
        ]
      }
    },
    {
      "type": "Feature",
      "properties": {
        "Water System Name": "BLACK HAMMOCK -MSBU(CONSEC)",
        "Population Served": 781,
        "City": "WINTER PARK"
      },
      "geometry": {
        "type": "Point",
        "coordinates": [
          -81.3510264,
          28.5977707
        ]
      }
    },
    {
      "type": "Feature",
      "properties": {
        "Water System Name": "BLOUNT'S LANDING WATER SYSTEM",
        "Population Served": 291,
        "City": "TALLAHASSEE"
      },
      "geometry": {
        "type": "Point",
        "coordinates": [
          -84.2809332,
          30.4380832
        ]
      }
    },
    {
      "type": "Feature",
      "properties": {
        "Water System Name": "BLOUNTSTOWN, CITY OF",
        "Population Served": 3000,
        "City": "BLOUNTSTOWN"
      },
      "geometry": {
        "type": "Point",
        "coordinates": [
          -85.0451953,
          30.4435293
        ]
      }
    },
    {
      "type": "Feature",
      "properties": {
        "Water System Name": "BLUE CYPRESS GOLF ; RV PARK",
        "Population Served": 418,
        "City": "OKEECHOBEE"
      },
      "geometry": {
        "type": "Point",
        "coordinates": [
          -80.8287487,
          27.2436957
        ]
      }
    },
    {
      "type": "Feature",
      "properties": {
        "Water System Name": "BLUE JAY MHP",
        "Population Served": 420,
        "City": "DADE CITY"
      },
      "geometry": {
        "type": "Point",
        "coordinates": [
          -82.1959178,
          28.3647248
        ]
      }
    },
    {
      "type": "Feature",
      "properties": {
        "Water System Name": "BLUE PARROT RV PARK",
        "Population Served": 100,
        "City": "LADY LAKE"
      },
      "geometry": {
        "type": "Point",
        "coordinates": [
          -81.9228604,
          28.9174855
        ]
      }
    },
    {
      "type": "Feature",
      "properties": {
        "Water System Name": "BLUE SPRINGS MHP (AKA SPRINGSIDE)",
        "Population Served": 50,
        "City": "MARIANNA"
      },
      "geometry": {
        "type": "Point",
        "coordinates": [
          -85.2268735,
          30.7743596
        ]
      }
    },
    {
      "type": "Feature",
      "properties": {
        "Water System Name": "BOB'S LANDING MOBILE HOME PARK",
        "Population Served": 100,
        "City": "BABSON PARK"
      },
      "geometry": {
        "type": "Point",
        "coordinates": [
          -81.5222975,
          27.8319708
        ]
      }
    },
    {
      "type": "Feature",
      "properties": {
        "Water System Name": "BOCA RATON WTP",
        "Population Served": 130000,
        "City": "BOCA RATON"
      },
      "geometry": {
        "type": "Point",
        "coordinates": [
          -80.0830984,
          26.3586885
        ]
      }
    },
    {
      "type": "Feature",
      "properties": {
        "Water System Name": "BOCILLA UTILITIES, INC.",
        "Population Served": 1064,
        "City": "ENGLEWOOD"
      },
      "geometry": {
        "type": "Point",
        "coordinates": [
          -82.3525952,
          26.9620053
        ]
      }
    },
    {
      "type": "Feature",
      "properties": {
        "Water System Name": "BONFIRE MOBILE HOME PARK",
        "Population Served": 418,
        "City": "LEESBURG"
      },
      "geometry": {
        "type": "Point",
        "coordinates": [
          -81.8778582,
          28.810823
        ]
      }
    },
    {
      "type": "Feature",
      "properties": {
        "Water System Name": "BONIFAY, CITY OF W/S",
        "Population Served": 2759,
        "City": "BONIFAY"
      },
      "geometry": {
        "type": "Point",
        "coordinates": [
          -85.6796533,
          30.7918559
        ]
      }
    },
    {
      "type": "Feature",
      "properties": {
        "Water System Name": "BONITA SPRINGS UTILITIES",
        "Population Served": 75858,
        "City": "BONITA SPRINGS"
      },
      "geometry": {
        "type": "Point",
        "coordinates": [
          -81.7786972,
          26.339806
        ]
      }
    },
    {
      "type": "Feature",
      "properties": {
        "Water System Name": "BOWLING GREEN, CITY OF",
        "Population Served": 2940,
        "City": "BOWLING GREEN"
      },
      "geometry": {
        "type": "Point",
        "coordinates": [
          -81.8239717,
          27.6383673
        ]
      }
    },
    {
      "type": "Feature",
      "properties": {
        "Water System Name": "BOYNTON BEACH PWS",
        "Population Served": 112000,
        "City": "BOYNTON BEACH"
      },
      "geometry": {
        "type": "Point",
        "coordinates": [
          -80.0666026,
          26.5256179
        ]
      }
    },
    {
      "type": "Feature",
      "properties": {
        "Water System Name": "BRADENTON CITY OF",
        "Population Served": 58584,
        "City": "BRADENTON"
      },
      "geometry": {
        "type": "Point",
        "coordinates": [
          -82.5748194,
          27.4989278
        ]
      }
    },
    {
      "type": "Feature",
      "properties": {
        "Water System Name": "BRADFORDVILLE REGIONAL W/S",
        "Population Served": 11395,
        "City": "QUINCY"
      },
      "geometry": {
        "type": "Point",
        "coordinates": [
          -84.5762388,
          30.5889265
        ]
      }
    },
    {
      "type": "Feature",
      "properties": {
        "Water System Name": "BRADLEY JUNCTION, TOWN OF",
        "Population Served": 1260,
        "City": "BRADLEY"
      },
      "geometry": {
        "type": "Point",
        "coordinates": [
          -81.9803629,
          27.7953069
        ]
      }
    },
    {
      "type": "Feature",
      "properties": {
        "Water System Name": "BRANDON-BRENT HEIGHTS WTP",
        "Population Served": 218,
        "City": "LAKE CITY"
      },
      "geometry": {
        "type": "Point",
        "coordinates": [
          -82.6394803,
          30.1894252
        ]
      }
    },
    {
      "type": "Feature",
      "properties": {
        "Water System Name": "BRANDON POINTE COMMUNITY",
        "Population Served": 1001,
        "City": "BRANDON"
      },
      "geometry": {
        "type": "Point",
        "coordinates": [
          -82.2859247,
          27.937801
        ]
      }
    },
    {
      "type": "Feature",
      "properties": {
        "Water System Name": "BRANFORD WTP",
        "Population Served": 800,
        "City": "BRANFORD"
      },
      "geometry": {
        "type": "Point",
        "coordinates": [
          -82.9281833,
          29.9591183
        ]
      }
    },
    {
      "type": "Feature",
      "properties": {
        "Water System Name": "BREEZE HILL MOBILE HOME PARK",
        "Population Served": 279,
        "City": "LAKE WALES"
      },
      "geometry": {
        "type": "Point",
        "coordinates": [
          -81.5859099,
          27.9014133
        ]
      }
    },
    {
      "type": "Feature",
      "properties": {
        "Water System Name": "BREEZEWAY TRAILER PARK",
        "Population Served": 95,
        "City": "MICCO"
      },
      "geometry": {
        "type": "Point",
        "coordinates": [
          -80.5052124,
          27.8639584
        ]
      }
    },
    {
      "type": "Feature",
      "properties": {
        "Water System Name": "BRENDENWOOD WATERWORKS",
        "Population Served": 130,
        "City": "GRAND ISLAND"
      },
      "geometry": {
        "type": "Point",
        "coordinates": [
          -81.7289657,
          28.8824885
        ]
      }
    },
    {
      "type": "Feature",
      "properties": {
        "Water System Name": "BREWSTER SUBDIVISION",
        "Population Served": 364,
        "City": "TALLAHASSEE"
      },
      "geometry": {
        "type": "Point",
        "coordinates": [
          -84.2809332,
          30.4380832
        ]
      }
    },
    {
      "type": "Feature",
      "properties": {
        "Water System Name": "BRIARWOOD ESTATES",
        "Population Served": 80,
        "City": "KATHLEEN"
      },
      "geometry": {
        "type": "Point",
        "coordinates": [
          -82.023138,
          28.1208502
        ]
      }
    },
    {
      "type": "Feature",
      "properties": {
        "Water System Name": "BRIARWOOD MOBILE HOME COMMUNITY",
        "Population Served": 275,
        "City": "PLANT CITY"
      },
      "geometry": {
        "type": "Point",
        "coordinates": [
          -82.1234803,
          28.01633
        ]
      }
    },
    {
      "type": "Feature",
      "properties": {
        "Water System Name": "BRIGHTWOOD MANOR MHP",
        "Population Served": 420,
        "City": "APOPKA"
      },
      "geometry": {
        "type": "Point",
        "coordinates": [
          -81.511398,
          28.678013
        ]
      }
    },
    {
      "type": "Feature",
      "properties": {
        "Water System Name": "BRISTOL, CITY OF WATER SYSTEM",
        "Population Served": 1535,
        "City": "BRISTOL"
      },
      "geometry": {
        "type": "Point",
        "coordinates": [
          -84.9765067,
          30.4321947
        ]
      }
    },
    {
      "type": "Feature",
      "properties": {
        "Water System Name": "BRITTANY ESTATES",
        "Population Served": 383,
        "City": "LEESBURG"
      },
      "geometry": {
        "type": "Point",
        "coordinates": [
          -81.8778582,
          28.810823
        ]
      }
    },
    {
      "type": "Feature",
      "properties": {
        "Water System Name": "BRONSON WTP",
        "Population Served": 1326,
        "City": "BRONSON"
      },
      "geometry": {
        "type": "Point",
        "coordinates": [
          -82.6423336,
          29.4477445
        ]
      }
    },
    {
      "type": "Feature",
      "properties": {
        "Water System Name": "BROOKSIDE BLUFF RV PARK",
        "Population Served": 300,
        "City": "ZOLFO SPRINGS"
      },
      "geometry": {
        "type": "Point",
        "coordinates": [
          -81.7959155,
          27.4933718
        ]
      }
    },
    {
      "type": "Feature",
      "properties": {
        "Water System Name": "BROOKSVILLE  CITY OF",
        "Population Served": 11500,
        "City": "BROOKSVILLE"
      },
      "geometry": {
        "type": "Point",
        "coordinates": [
          -82.3878709,
          28.5552719
        ]
      }
    },
    {
      "type": "Feature",
      "properties": {
        "Water System Name": "BUCCANEER BAY MHP, LLC",
        "Population Served": 77,
        "City": "LAKELAND"
      },
      "geometry": {
        "type": "Point",
        "coordinates": [
          -81.9498042,
          28.0394654
        ]
      }
    },
    {
      "type": "Feature",
      "properties": {
        "Water System Name": "BUCK LAKE ESTATES",
        "Population Served": 150,
        "City": "TALLAHASSEE"
      },
      "geometry": {
        "type": "Point",
        "coordinates": [
          -84.2809332,
          30.4380832
        ]
      }
    },
    {
      "type": "Feature",
      "properties": {
        "Water System Name": "BUCKSKIN LAKE MANOR",
        "Population Served": 170,
        "City": "FT. MCCOY"
      },
      "geometry": {
        "type": "Point",
        "coordinates": [
          -81.9670322,
          29.3649734
        ]
      }
    },
    {
      "type": "Feature",
      "properties": {
        "Water System Name": "BUD WELL #5 WTP",
        "Population Served": 25,
        "City": "BRANDON"
      },
      "geometry": {
        "type": "Point",
        "coordinates": [
          -82.2859247,
          27.937801
        ]
      }
    },
    {
      "type": "Feature",
      "properties": {
        "Water System Name": "BUD WELL #7 WTP",
        "Population Served": 25,
        "City": "VALRICO"
      },
      "geometry": {
        "type": "Point",
        "coordinates": [
          -82.2578687,
          27.9458566
        ]
      }
    },
    {
      "type": "Feature",
      "properties": {
        "Water System Name": "BULOW PLANTATION",
        "Population Served": 1001,
        "City": "FLAGLER BEACH"
      },
      "geometry": {
        "type": "Point",
        "coordinates": [
          -81.1269982,
          29.4749927
        ]
      }
    },
    {
      "type": "Feature",
      "properties": {
        "Water System Name": "BUNNELL WATER PLANT",
        "Population Served": 3507,
        "City": "BUNNELL"
      },
      "geometry": {
        "type": "Point",
        "coordinates": [
          -81.2576832,
          29.4657731
        ]
      }
    },
    {
      "type": "Feature",
      "properties": {
        "Water System Name": "BURGESS CIRCLE SUBDIVISION",
        "Population Served": 70,
        "City": "TALLAHASSEE"
      },
      "geometry": {
        "type": "Point",
        "coordinates": [
          -84.2809332,
          30.4380832
        ]
      }
    },
    {
      "type": "Feature",
      "properties": {
        "Water System Name": "BURRELL DUPLEXES",
        "Population Served": 30,
        "City": "LUTZ"
      },
      "geometry": {
        "type": "Point",
        "coordinates": [
          -82.4614831,
          28.1511243
        ]
      }
    },
    {
      "type": "Feature",
      "properties": {
        "Water System Name": "BUSHNELL, CITY OF (2 WPS)",
        "Population Served": 3047,
        "City": "BUSHNELL"
      },
      "geometry": {
        "type": "Point",
        "coordinates": [
          -82.1117399,
          28.6644827
        ]
      }
    },
    {
      "type": "Feature",
      "properties": {
        "Water System Name": "BUTTONWOOD BAY MHP",
        "Population Served": 2000,
        "City": "SEBRING"
      },
      "geometry": {
        "type": "Point",
        "coordinates": [
          -81.4410425,
          27.4957453
        ]
      }
    },
    {
      "type": "Feature",
      "properties": {
        "Water System Name": "CALLAHAN WTP",
        "Population Served": 1691,
        "City": "CALLAHAN"
      },
      "geometry": {
        "type": "Point",
        "coordinates": [
          -81.8306621,
          30.5621807
        ]
      }
    },
    {
      "type": "Feature",
      "properties": {
        "Water System Name": "CALLAWAY, CITY OF WATER SYSTEM",
        "Population Served": 20520,
        "City": "CALLAWAY"
      },
      "geometry": {
        "type": "Point",
        "coordinates": [
          -85.5699252,
          30.1529791
        ]
      }
    },
    {
      "type": "Feature",
      "properties": {
        "Water System Name": "CAMACHEE COVE YACHT HARBOR WTP",
        "Population Served": 306,
        "City": "ST. AUGUSTINE"
      },
      "geometry": {
        "type": "Point",
        "coordinates": [
          -81.3145395,
          29.8946952
        ]
      }
    },
    {
      "type": "Feature",
      "properties": {
        "Water System Name": "CAMELOT LAKES",
        "Population Served": 1700,
        "City": "SARASOTA"
      },
      "geometry": {
        "type": "Point",
        "coordinates": [
          -82.5308545,
          27.3365805
        ]
      }
    },
    {
      "type": "Feature",
      "properties": {
        "Water System Name": "CAMELOT MHP",
        "Population Served": 240,
        "City": "THONOTOSASSA"
      },
      "geometry": {
        "type": "Point",
        "coordinates": [
          -82.3023128,
          28.0614065
        ]
      }
    },
    {
      "type": "Feature",
      "properties": {
        "Water System Name": "CAMELOT RV PARK INC",
        "Population Served": 100,
        "City": "MALABAR"
      },
      "geometry": {
        "type": "Point",
        "coordinates": [
          -80.568178,
          28.0022483
        ]
      }
    },
    {
      "type": "Feature",
      "properties": {
        "Water System Name": "CAMP-A-WYLE LAKE RESORT",
        "Population Served": 400,
        "City": "WEEKI WACHEE"
      },
      "geometry": {
        "type": "Point",
        "coordinates": [
          -82.5735662,
          28.5156479
        ]
      }
    },
    {
      "type": "Feature",
      "properties": {
        "Water System Name": "CAMPBELLTON WATER DEPARTMENT",
        "Population Served": 216,
        "City": "CAMPBELLTON"
      },
      "geometry": {
        "type": "Point",
        "coordinates": [
          -85.4021544,
          30.9493516
        ]
      }
    },
    {
      "type": "Feature",
      "properties": {
        "Water System Name": "CAMP BLANDING JOINT TRAINING CENTER",
        "Population Served": 900,
        "City": "STARKE"
      },
      "geometry": {
        "type": "Point",
        "coordinates": [
          -82.1101114,
          29.9443549
        ]
      }
    },
    {
      "type": "Feature",
      "properties": {
        "Water System Name": "CAMPER'S HOLIDAY",
        "Population Served": 400,
        "City": "BROOKSVILLE"
      },
      "geometry": {
        "type": "Point",
        "coordinates": [
          -82.3878709,
          28.5552719
        ]
      }
    },
    {
      "type": "Feature",
      "properties": {
        "Water System Name": "CAMP INN ASSOCIATES, LLC",
        "Population Served": 1500,
        "City": "FROSTPROOF"
      },
      "geometry": {
        "type": "Point",
        "coordinates": [
          -81.5306313,
          27.7458626
        ]
      }
    },
    {
      "type": "Feature",
      "properties": {
        "Water System Name": "CAMP ROSALIE",
        "Population Served": 59,
        "City": "LAKE WALES"
      },
      "geometry": {
        "type": "Point",
        "coordinates": [
          -81.5859099,
          27.9014133
        ]
      }
    },
    {
      "type": "Feature",
      "properties": {
        "Water System Name": "CANNON CREEK MHP",
        "Population Served": 80,
        "City": "LAKE CITY"
      },
      "geometry": {
        "type": "Point",
        "coordinates": [
          -82.6394803,
          30.1894252
        ]
      }
    },
    {
      "type": "Feature",
      "properties": {
        "Water System Name": "CAPE CORAL, CITY OF",
        "Population Served": 172121,
        "City": "CAPE CORAL"
      },
      "geometry": {
        "type": "Point",
        "coordinates": [
          -81.9438802,
          26.5625742
        ]
      }
    },
    {
      "type": "Feature",
      "properties": {
        "Water System Name": "CAREFREE COUNTRY CLUB, INC.",
        "Population Served": 784,
        "City": "WINTER HAVEN"
      },
      "geometry": {
        "type": "Point",
        "coordinates": [
          -81.7328568,
          28.0222435
        ]
      }
    },
    {
      "type": "Feature",
      "properties": {
        "Water System Name": "CARIBBEAN MOBILE HOME ESTATES",
        "Population Served": 124,
        "City": "NEW PORT RICHEY"
      },
      "geometry": {
        "type": "Point",
        "coordinates": [
          -82.7192671,
          28.2441768
        ]
      }
    },
    {
      "type": "Feature",
      "properties": {
        "Water System Name": "CARLTON VILLAGE",
        "Population Served": 474,
        "City": "LADY LAKE"
      },
      "geometry": {
        "type": "Point",
        "coordinates": [
          -81.9228604,
          28.9174855
        ]
      }
    },
    {
      "type": "Feature",
      "properties": {
        "Water System Name": "CAROUSEL VILLAGE MHP",
        "Population Served": 82,
        "City": "TAMPA"
      },
      "geometry": {
        "type": "Point",
        "coordinates": [
          -82.458444,
          27.9477595
        ]
      }
    },
    {
      "type": "Feature",
      "properties": {
        "Water System Name": "CARYVILLE, TOWN OF",
        "Population Served": 423,
        "City": "CARYVILLE"
      },
      "geometry": {
        "type": "Point",
        "coordinates": [
          -85.8140997,
          30.7732441
        ]
      }
    },
    {
      "type": "Feature",
      "properties": {
        "Water System Name": "CASA VERDE MANUFACTURED HOME COMMUNITY",
        "Population Served": 1250,
        "City": "TAMPA"
      },
      "geometry": {
        "type": "Point",
        "coordinates": [
          -82.458444,
          27.9477595
        ]
      }
    },
    {
      "type": "Feature",
      "properties": {
        "Water System Name": "CASITA BELLA",
        "Population Served": 32,
        "City": "TAMPA"
      },
      "geometry": {
        "type": "Point",
        "coordinates": [
          -82.458444,
          27.9477595
        ]
      }
    },
    {
      "type": "Feature",
      "properties": {
        "Water System Name": "CASSELBERRY, CITY OF (3 WPS)",
        "Population Served": 54747,
        "City": "CASSELBERRY"
      },
      "geometry": {
        "type": "Point",
        "coordinates": [
          -81.3382005,
          28.6714702
        ]
      }
    },
    {
      "type": "Feature",
      "properties": {
        "Water System Name": "CASTLE LAKE PARK",
        "Population Served": 196,
        "City": "FLORAL CITY"
      },
      "geometry": {
        "type": "Point",
        "coordinates": [
          -82.2968741,
          28.750034
        ]
      }
    },
    {
      "type": "Feature",
      "properties": {
        "Water System Name": "CAX-LAKESHORE LLC",
        "Population Served": 590,
        "City": "TAMPA"
      },
      "geometry": {
        "type": "Point",
        "coordinates": [
          -82.458444,
          27.9477595
        ]
      }
    },
    {
      "type": "Feature",
      "properties": {
        "Water System Name": "CEDAR HILLS",
        "Population Served": 1013,
        "City": "OCALA"
      },
      "geometry": {
        "type": "Point",
        "coordinates": [
          -82.1400923,
          29.1871986
        ]
      }
    },
    {
      "type": "Feature",
      "properties": {
        "Water System Name": "CEDAR KEY WTP",
        "Population Served": 735,
        "City": "CEDAR KEY"
      },
      "geometry": {
        "type": "Point",
        "coordinates": [
          -83.0359638,
          29.1377209
        ]
      }
    },
    {
      "type": "Feature",
      "properties": {
        "Water System Name": "CEDAR LAKE ESTATES",
        "Population Served": 85,
        "City": "CRYSTAL RIVER"
      },
      "geometry": {
        "type": "Point",
        "coordinates": [
          -82.5926012,
          28.902479
        ]
      }
    },
    {
      "type": "Feature",
      "properties": {
        "Water System Name": "CENTER HILL WATER DEPT-CITY OF",
        "Population Served": 762,
        "City": "CENTER HILL"
      },
      "geometry": {
        "type": "Point",
        "coordinates": [
          -81.9925814,
          28.6499942
        ]
      }
    },
    {
      "type": "Feature",
      "properties": {
        "Water System Name": "CENTRAL",
        "Population Served": 13595,
        "City": "WINTER HAVEN"
      },
      "geometry": {
        "type": "Point",
        "coordinates": [
          -81.7328568,
          28.0222435
        ]
      }
    },
    {
      "type": "Feature",
      "properties": {
        "Water System Name": "CENTRAL LEISURE LAKE MHP ; RV",
        "Population Served": 194,
        "City": "AUBURNDALE"
      },
      "geometry": {
        "type": "Point",
        "coordinates": [
          -81.7888642,
          28.0653422
        ]
      }
    },
    {
      "type": "Feature",
      "properties": {
        "Water System Name": "CENTRAL WATER WORKS",
        "Population Served": 2560,
        "City": "CENTURY"
      },
      "geometry": {
        "type": "Point",
        "coordinates": [
          -87.2638628,
          30.9732384
        ]
      }
    },
    {
      "type": "Feature",
      "properties": {
        "Water System Name": "CENTURY ESTATES UTILITIES INC.",
        "Population Served": 343,
        "City": "LEESBURG"
      },
      "geometry": {
        "type": "Point",
        "coordinates": [
          -81.8778582,
          28.810823
        ]
      }
    },
    {
      "type": "Feature",
      "properties": {
        "Water System Name": "CENTURY, TOWN OF",
        "Population Served": 3490,
        "City": "CENTURY"
      },
      "geometry": {
        "type": "Point",
        "coordinates": [
          -87.2638628,
          30.9732384
        ]
      }
    },
    {
      "type": "Feature",
      "properties": {
        "Water System Name": "CFTOD CENTRAL (4 WPS)",
        "Population Served": 136500,
        "City": "LAKE BUENA VISTA"
      },
      "geometry": {
        "type": "Point",
        "coordinates": [
          -81.5239625,
          28.3716746
        ]
      }
    },
    {
      "type": "Feature",
      "properties": {
        "Water System Name": "CHALET VILLAGE MHP",
        "Population Served": 130,
        "City": "TAMPA"
      },
      "geometry": {
        "type": "Point",
        "coordinates": [
          -82.458444,
          27.9477595
        ]
      }
    },
    {
      "type": "Feature",
      "properties": {
        "Water System Name": "CHAPMAN'S M.H.P.",
        "Population Served": 180,
        "City": "LAKELAND"
      },
      "geometry": {
        "type": "Point",
        "coordinates": [
          -81.9498042,
          28.0394654
        ]
      }
    },
    {
      "type": "Feature",
      "properties": {
        "Water System Name": "CHAPPELL HILLS",
        "Population Served": 144,
        "City": "OCALA"
      },
      "geometry": {
        "type": "Point",
        "coordinates": [
          -82.1400923,
          29.1871986
        ]
      }
    },
    {
      "type": "Feature",
      "properties": {
        "Water System Name": "CHARLESTON PARK",
        "Population Served": 312,
        "City": "ALVA"
      },
      "geometry": {
        "type": "Point",
        "coordinates": [
          -81.6100797,
          26.7156236
        ]
      }
    },
    {
      "type": "Feature",
      "properties": {
        "Water System Name": "CHARLIE CREEK-THE VILLAGE OF",
        "Population Served": 142,
        "City": "WAUCHULA"
      },
      "geometry": {
        "type": "Point",
        "coordinates": [
          -81.8114715,
          27.5472589
        ]
      }
    },
    {
      "type": "Feature",
      "properties": {
        "Water System Name": "CHARLIES MHP",
        "Population Served": 218,
        "City": "THONOTOSASSA"
      },
      "geometry": {
        "type": "Point",
        "coordinates": [
          -82.3023128,
          28.0614065
        ]
      }
    },
    {
      "type": "Feature",
      "properties": {
        "Water System Name": "CHARLOTTE CORRECTIONAL INSTITUTION",
        "Population Served": 1779,
        "City": "PUNTA GORDA"
      },
      "geometry": {
        "type": "Point",
        "coordinates": [
          -82.0512058,
          26.9351529
        ]
      }
    },
    {
      "type": "Feature",
      "properties": {
        "Water System Name": "CHARLOTTE COUNTY UTILITIES",
        "Population Served": 156367,
        "City": "PORT CHARLOTTE"
      },
      "geometry": {
        "type": "Point",
        "coordinates": [
          -82.0906448,
          26.9761707
        ]
      }
    },
    {
      "type": "Feature",
      "properties": {
        "Water System Name": "CHARLOTTE COUNTY UTILITIES / BURNT STORE",
        "Population Served": 10582,
        "City": "PUNTA GORDA"
      },
      "geometry": {
        "type": "Point",
        "coordinates": [
          -82.0512058,
          26.9351529
        ]
      }
    },
    {
      "type": "Feature",
      "properties": {
        "Water System Name": "CHARLOTTE HARBOR WATER ASSN.",
        "Population Served": 4722,
        "City": "PUNTA GORDA"
      },
      "geometry": {
        "type": "Point",
        "coordinates": [
          -82.0512058,
          26.9351529
        ]
      }
    },
    {
      "type": "Feature",
      "properties": {
        "Water System Name": "CHASE GROVES(CONSEC.)",
        "Population Served": 4052,
        "City": "WINTER PARK"
      },
      "geometry": {
        "type": "Point",
        "coordinates": [
          -81.3510264,
          28.5977707
        ]
      }
    },
    {
      "type": "Feature",
      "properties": {
        "Water System Name": "CHATTAHOOCHEE, CITY OF",
        "Population Served": 2959,
        "City": "CHATTAHOOCHEE"
      },
      "geometry": {
        "type": "Point",
        "coordinates": [
          -84.843223,
          30.7048733
        ]
      }
    },
    {
      "type": "Feature",
      "properties": {
        "Water System Name": "CHELSEA MEADOWS / WATERS EDGE",
        "Population Served": 120,
        "City": "LAND O' LAKES"
      },
      "geometry": {
        "type": "Point",
        "coordinates": [
          -82.4575938,
          28.2188992
        ]
      }
    },
    {
      "type": "Feature",
      "properties": {
        "Water System Name": "CHERRY LAKE UTILITIES",
        "Population Served": 750,
        "City": "MADISON"
      },
      "geometry": {
        "type": "Point",
        "coordinates": [
          -83.4129254,
          30.4693772
        ]
      }
    },
    {
      "type": "Feature",
      "properties": {
        "Water System Name": "CHIPLEY, CITY OF",
        "Population Served": 3660,
        "City": "CHIPLEY"
      },
      "geometry": {
        "type": "Point",
        "coordinates": [
          -85.538541,
          30.7818584
        ]
      }
    },
    {
      "type": "Feature",
      "properties": {
        "Water System Name": "CHRISTMAS TREE TP",
        "Population Served": 60,
        "City": "FORT MEADE"
      },
      "geometry": {
        "type": "Point",
        "coordinates": [
          -81.8017491,
          27.7522526
        ]
      }
    },
    {
      "type": "Feature",
      "properties": {
        "Water System Name": "CHULAVISTA LANDINGS",
        "Population Served": 380,
        "City": "RUSKIN"
      },
      "geometry": {
        "type": "Point",
        "coordinates": [
          -82.4331528,
          27.7208575
        ]
      }
    },
    {
      "type": "Feature",
      "properties": {
        "Water System Name": "CHULUOTA WATER SYSTEM",
        "Population Served": 3863,
        "City": "CHULUOTA"
      },
      "geometry": {
        "type": "Point",
        "coordinates": [
          -81.1153521,
          28.6383385
        ]
      }
    },
    {
      "type": "Feature",
      "properties": {
        "Water System Name": "CHUMUCKLA WATER SYSTEM, INC.",
        "Population Served": 5527,
        "City": "PACE"
      },
      "geometry": {
        "type": "Point",
        "coordinates": [
          -87.1610808,
          30.5993603
        ]
      }
    },
    {
      "type": "Feature",
      "properties": {
        "Water System Name": "CHURCH OF GOD CAMPGROUND",
        "Population Served": 80,
        "City": "WIMAUMA"
      },
      "geometry": {
        "type": "Point",
        "coordinates": [
          -82.2989803,
          27.7125308
        ]
      }
    },
    {
      "type": "Feature",
      "properties": {
        "Water System Name": "CINNAMON RIDGE UTILITIES #2",
        "Population Served": 638,
        "City": "LECANTO"
      },
      "geometry": {
        "type": "Point",
        "coordinates": [
          -82.4875982,
          28.8516486
        ]
      }
    },
    {
      "type": "Feature",
      "properties": {
        "Water System Name": "CITRA HIGHLANDS",
        "Population Served": 88,
        "City": "CITRA"
      },
      "geometry": {
        "type": "Point",
        "coordinates": [
          -82.1098156,
          29.4119166
        ]
      }
    },
    {
      "type": "Feature",
      "properties": {
        "Water System Name": "CITRUS CIRCLE MOBILE HOME S/D",
        "Population Served": 88,
        "City": "FRUITLAND PARK"
      },
      "geometry": {
        "type": "Point",
        "coordinates": [
          -81.9064705,
          28.8613765
        ]
      }
    },
    {
      "type": "Feature",
      "properties": {
        "Water System Name": "CITRUS CO UTL/CHARLES A. BLACK",
        "Population Served": 20698,
        "City": "LECANTO"
      },
      "geometry": {
        "type": "Point",
        "coordinates": [
          -82.4875982,
          28.8516486
        ]
      }
    },
    {
      "type": "Feature",
      "properties": {
        "Water System Name": "CITRUS CO UTL/WATER OAKS S/D",
        "Population Served": 148,
        "City": "INVERNESS"
      },
      "geometry": {
        "type": "Point",
        "coordinates": [
          -82.3303715,
          28.8358176
        ]
      }
    },
    {
      "type": "Feature",
      "properties": {
        "Water System Name": "CITRUS COVE SUBDIVISION",
        "Population Served": 80,
        "City": "WINTER GARDEN"
      },
      "geometry": {
        "type": "Point",
        "coordinates": [
          -81.5856742,
          28.5656649
        ]
      }
    },
    {
      "type": "Feature",
      "properties": {
        "Water System Name": "CITRUS HILLS RVP",
        "Population Served": 425,
        "City": "DOVER"
      },
      "geometry": {
        "type": "Point",
        "coordinates": [
          -82.2195344,
          27.9941885
        ]
      }
    },
    {
      "type": "Feature",
      "properties": {
        "Water System Name": "CITRUS KNOLL MHP",
        "Population Served": 52,
        "City": "THONOTOSASSA"
      },
      "geometry": {
        "type": "Point",
        "coordinates": [
          -82.3023128,
          28.0614065
        ]
      }
    },
    {
      "type": "Feature",
      "properties": {
        "Water System Name": "CITRUS PARK RV RESORT (BONITA TERRA)",
        "Population Served": 3282,
        "City": "BONITA SPRINGS"
      },
      "geometry": {
        "type": "Point",
        "coordinates": [
          -81.7786972,
          26.339806
        ]
      }
    },
    {
      "type": "Feature",
      "properties": {
        "Water System Name": "CITRUS SPRINGS",
        "Population Served": 22907,
        "City": "DUNNELLON"
      },
      "geometry": {
        "type": "Point",
        "coordinates": [
          -82.4609331,
          29.0491426
        ]
      }
    },
    {
      "type": "Feature",
      "properties": {
        "Water System Name": "CITRUS WATERWORKS FKA BACKWATER HEIGHTS",
        "Population Served": 267,
        "City": "DUNNELLON"
      },
      "geometry": {
        "type": "Point",
        "coordinates": [
          -82.4609331,
          29.0491426
        ]
      }
    },
    {
      "type": "Feature",
      "properties": {
        "Water System Name": "CITY OF CARRABELLE WATER SYSTEM",
        "Population Served": 3115,
        "City": "CARRABELLE"
      },
      "geometry": {
        "type": "Point",
        "coordinates": [
          -84.664348,
          29.8532645
        ]
      }
    },
    {
      "type": "Feature",
      "properties": {
        "Water System Name": "CITY OF CHIEFLAND WTP",
        "Population Served": 2031,
        "City": "CHIEFLAND"
      },
      "geometry": {
        "type": "Point",
        "coordinates": [
          -82.8591997,
          29.4749586
        ]
      }
    },
    {
      "type": "Feature",
      "properties": {
        "Water System Name": "CITY OF FORT MEADE",
        "Population Served": 5455,
        "City": "FORT MEADE"
      },
      "geometry": {
        "type": "Point",
        "coordinates": [
          -81.8017491,
          27.7522526
        ]
      }
    },
    {
      "type": "Feature",
      "properties": {
        "Water System Name": "CITY OF FORT MYERS WATER TREATMENT PLANT",
        "Population Served": 92219,
        "City": "FORT MYERS"
      },
      "geometry": {
        "type": "Point",
        "coordinates": [
          -81.8723084,
          26.640628
        ]
      }
    },
    {
      "type": "Feature",
      "properties": {
        "Water System Name": "CITY OF GREEN COVE SPRINGS WTP",
        "Population Served": 7000,
        "City": "GREEN COVE SPRINGS"
      },
      "geometry": {
        "type": "Point",
        "coordinates": [
          -81.6781097,
          29.9919779
        ]
      }
    },
    {
      "type": "Feature",
      "properties": {
        "Water System Name": "CITY OF HAMPTON WTP",
        "Population Served": 458,
        "City": "HAMPTON"
      },
      "geometry": {
        "type": "Point",
        "coordinates": [
          -82.130956,
          29.864533
        ]
      }
    },
    {
      "type": "Feature",
      "properties": {
        "Water System Name": "CITY OF HOLLY HILL",
        "Population Served": 12417,
        "City": "HOLLY HILL"
      },
      "geometry": {
        "type": "Point",
        "coordinates": [
          -81.0375555,
          29.2435916
        ]
      }
    },
    {
      "type": "Feature",
      "properties": {
        "Water System Name": "CITY OF JASPER WTP",
        "Population Served": 6250,
        "City": "JASPER"
      },
      "geometry": {
        "type": "Point",
        "coordinates": [
          -82.94819,
          30.5182727
        ]
      }
    },
    {
      "type": "Feature",
      "properties": {
        "Water System Name": "CITY OF LAKE CITY (PRICE CREEK WTP)",
        "Population Served": 18560,
        "City": "LAKE CITY"
      },
      "geometry": {
        "type": "Point",
        "coordinates": [
          -82.6394803,
          30.1894252
        ]
      }
    },
    {
      "type": "Feature",
      "properties": {
        "Water System Name": "CITY OF LAKE HELEN",
        "Population Served": 2704,
        "City": "LAKE HELEN"
      },
      "geometry": {
        "type": "Point",
        "coordinates": [
          -81.2333937,
          28.9808195
        ]
      }
    },
    {
      "type": "Feature",
      "properties": {
        "Water System Name": "CITY OF LAKE WALES/PARK WATER COMPANY",
        "Population Served": 1948,
        "City": "LAKE WALES"
      },
      "geometry": {
        "type": "Point",
        "coordinates": [
          -81.5859099,
          27.9014133
        ]
      }
    },
    {
      "type": "Feature",
      "properties": {
        "Water System Name": "CITY OF LAWTEY WTP",
        "Population Served": 1850,
        "City": "LAWTEY"
      },
      "geometry": {
        "type": "Point",
        "coordinates": [
          -82.0717733,
          30.0441284
        ]
      }
    },
    {
      "type": "Feature",
      "properties": {
        "Water System Name": "CITY OF MACCLENNY",
        "Population Served": 5000,
        "City": "MACCLENNY"
      },
      "geometry": {
        "type": "Point",
        "coordinates": [
          -82.1220569,
          30.2821807
        ]
      }
    },
    {
      "type": "Feature",
      "properties": {
        "Water System Name": "CITY OF MARGATE",
        "Population Served": 62254,
        "City": "MARGATE"
      },
      "geometry": {
        "type": "Point",
        "coordinates": [
          -80.206436,
          26.2445263
        ]
      }
    },
    {
      "type": "Feature",
      "properties": {
        "Water System Name": "CITY OF NEW SMYRNA BEACH",
        "Population Served": 67847,
        "City": "NEW SMYRNA BEACH"
      },
      "geometry": {
        "type": "Point",
        "coordinates": [
          -80.9271271,
          29.0258132
        ]
      }
    },
    {
      "type": "Feature",
      "properties": {
        "Water System Name": "CITY OF PALM COAST UTILITY",
        "Population Served": 96025,
        "City": "PALM COAST"
      },
      "geometry": {
        "type": "Point",
        "coordinates": [
          -81.2207673,
          29.5541432
        ]
      }
    },
    {
      "type": "Feature",
      "properties": {
        "Water System Name": "CITY OF PALMETTO WATER DEPT.",
        "Population Served": 13446,
        "City": "PALMETTO"
      },
      "geometry": {
        "type": "Point",
        "coordinates": [
          -82.5723193,
          27.5214269
        ]
      }
    },
    {
      "type": "Feature",
      "properties": {
        "Water System Name": "CITY OF PAXTON",
        "Population Served": 1578,
        "City": "PAXTON"
      },
      "geometry": {
        "type": "Point",
        "coordinates": [
          -86.3074456,
          30.9815697
        ]
      }
    },
    {
      "type": "Feature",
      "properties": {
        "Water System Name": "CITY OF PERRY",
        "Population Served": 8900,
        "City": "PERRY"
      },
      "geometry": {
        "type": "Point",
        "coordinates": [
          -83.5818147,
          30.1174351
        ]
      }
    },
    {
      "type": "Feature",
      "properties": {
        "Water System Name": "CITY OF PLANT CITY UTILITY",
        "Population Served": 42536,
        "City": "PLANT CITY"
      },
      "geometry": {
        "type": "Point",
        "coordinates": [
          -82.1234803,
          28.01633
        ]
      }
    },
    {
      "type": "Feature",
      "properties": {
        "Water System Name": "CITY OF PUNTA GORDA",
        "Population Served": 36302,
        "City": "PUNTA GORDA"
      },
      "geometry": {
        "type": "Point",
        "coordinates": [
          -82.0512058,
          26.9351529
        ]
      }
    },
    {
      "type": "Feature",
      "properties": {
        "Water System Name": "CITY OF SOPCHOPPY",
        "Population Served": 12290,
        "City": "SOPCHOPPY"
      },
      "geometry": {
        "type": "Point",
        "coordinates": [
          -84.4887917,
          30.0599251
        ]
      }
    },
    {
      "type": "Feature",
      "properties": {
        "Water System Name": "CITY OF STARKE WTP",
        "Population Served": 6800,
        "City": "STARKE"
      },
      "geometry": {
        "type": "Point",
        "coordinates": [
          -82.1101114,
          29.9443549
        ]
      }
    },
    {
      "type": "Feature",
      "properties": {
        "Water System Name": "CITY OF TAMPA WATER DEPARTMENT",
        "Population Served": 717000,
        "City": "TAMPA"
      },
      "geometry": {
        "type": "Point",
        "coordinates": [
          -82.458444,
          27.9477595
        ]
      }
    },
    {
      "type": "Feature",
      "properties": {
        "Water System Name": "CITY OF TEMPLE TERRACE UTILITY",
        "Population Served": 31250,
        "City": "TEMPLE TERRACE"
      },
      "geometry": {
        "type": "Point",
        "coordinates": [
          -82.3892596,
          28.0352964
        ]
      }
    },
    {
      "type": "Feature",
      "properties": {
        "Water System Name": "CITY OF WESTON (INDIAN TRACE)",
        "Population Served": 52300,
        "City": "WESTON"
      },
      "geometry": {
        "type": "Point",
        "coordinates": [
          -80.399513,
          26.1003392
        ]
      }
    },
    {
      "type": "Feature",
      "properties": {
        "Water System Name": "CLARCONA RESORTS",
        "Population Served": 1290,
        "City": "APOPKA"
      },
      "geometry": {
        "type": "Point",
        "coordinates": [
          -81.511398,
          28.678013
        ]
      }
    },
    {
      "type": "Feature",
      "properties": {
        "Water System Name": "CLEARWATER WATER SYSTEM",
        "Population Served": 115000,
        "City": "CLEARWATER"
      },
      "geometry": {
        "type": "Point",
        "coordinates": [
          -82.8001026,
          27.9658533
        ]
      }
    },
    {
      "type": "Feature",
      "properties": {
        "Water System Name": "CLERBROOK RV RESORTS (2 WPS)",
        "Population Served": 3142,
        "City": "CLERMONT"
      },
      "geometry": {
        "type": "Point",
        "coordinates": [
          -81.7669488,
          28.5551912
        ]
      }
    },
    {
      "type": "Feature",
      "properties": {
        "Water System Name": "CLERMONT, CITY OF (2 WPS)",
        "Population Served": 10048,
        "City": "CLERMONT"
      },
      "geometry": {
        "type": "Point",
        "coordinates": [
          -81.7669488,
          28.5551912
        ]
      }
    },
    {
      "type": "Feature",
      "properties": {
        "Water System Name": "CLERMONT EAST WATER SYSTEM (2 WPS)",
        "Population Served": 39279,
        "City": "CLERMONT"
      },
      "geometry": {
        "type": "Point",
        "coordinates": [
          -81.7669488,
          28.5551912
        ]
      }
    },
    {
      "type": "Feature",
      "properties": {
        "Water System Name": "CLEWISTON, CITY OF",
        "Population Served": 9570,
        "City": "CLEWISTON"
      },
      "geometry": {
        "type": "Point",
        "coordinates": [
          -80.9336753,
          26.7542312
        ]
      }
    },
    {
      "type": "Feature",
      "properties": {
        "Water System Name": "CLIFTWOOD MOBILE HOME PARK",
        "Population Served": 54,
        "City": "OCALA"
      },
      "geometry": {
        "type": "Point",
        "coordinates": [
          -82.1400923,
          29.1871986
        ]
      }
    },
    {
      "type": "Feature",
      "properties": {
        "Water System Name": "COCOA, CITY OF",
        "Population Served": 294039,
        "City": "COCOA"
      },
      "geometry": {
        "type": "Point",
        "coordinates": [
          -80.7325345,
          28.3556635
        ]
      }
    },
    {
      "type": "Feature",
      "properties": {
        "Water System Name": "COCONUT CREEK, CITY OF",
        "Population Served": 54000,
        "City": "COCONUT CREEK"
      },
      "geometry": {
        "type": "Point",
        "coordinates": [
          -80.1789351,
          26.2517482
        ]
      }
    },
    {
      "type": "Feature",
      "properties": {
        "Water System Name": "COLEMAN, CITY OF",
        "Population Served": 824,
        "City": "COLEMAN"
      },
      "geometry": {
        "type": "Point",
        "coordinates": [
          -82.0703578,
          28.7997644
        ]
      }
    },
    {
      "type": "Feature",
      "properties": {
        "Water System Name": "COLINA BAY",
        "Population Served": 175,
        "City": "MONTVERDE"
      },
      "geometry": {
        "type": "Point",
        "coordinates": [
          -81.673964,
          28.6002769
        ]
      }
    },
    {
      "type": "Feature",
      "properties": {
        "Water System Name": "COLLEGE MANOR UTILITIES",
        "Population Served": 150,
        "City": "LAKE CITY"
      },
      "geometry": {
        "type": "Point",
        "coordinates": [
          -82.6394803,
          30.1894252
        ]
      }
    },
    {
      "type": "Feature",
      "properties": {
        "Water System Name": "COLLIER COUNTY REGIONAL WTP",
        "Population Served": 171370,
        "City": "NAPLES"
      },
      "geometry": {
        "type": "Point",
        "coordinates": [
          -81.7942944,
          26.1421976
        ]
      }
    },
    {
      "type": "Feature",
      "properties": {
        "Water System Name": "COLONIAL ESTATES MHP",
        "Population Served": 450,
        "City": "BOYNTON BEACH"
      },
      "geometry": {
        "type": "Point",
        "coordinates": [
          -80.0666026,
          26.5256179
        ]
      }
    },
    {
      "type": "Feature",
      "properties": {
        "Water System Name": "COLONIAL MANOR WATER SYSTEM",
        "Population Served": 1794,
        "City": "NEW PORT RICHEY"
      },
      "geometry": {
        "type": "Point",
        "coordinates": [
          -82.7192671,
          28.2441768
        ]
      }
    },
    {
      "type": "Feature",
      "properties": {
        "Water System Name": "COLONIAL MOBILE HOME PARK",
        "Population Served": 115,
        "City": "ST CLOUD"
      },
      "geometry": {
        "type": "Point",
        "coordinates": [
          -81.2839038,
          28.2498534
        ]
      }
    },
    {
      "type": "Feature",
      "properties": {
        "Water System Name": "COLONIES OF MARGATE",
        "Population Served": 1400,
        "City": "MARGATE"
      },
      "geometry": {
        "type": "Point",
        "coordinates": [
          -80.206436,
          26.2445263
        ]
      }
    },
    {
      "type": "Feature",
      "properties": {
        "Water System Name": "COLONY CLUB MHP",
        "Population Served": 102,
        "City": "FORT PIERCE"
      },
      "geometry": {
        "type": "Point",
        "coordinates": [
          -80.3256056,
          27.4467056
        ]
      }
    },
    {
      "type": "Feature",
      "properties": {
        "Water System Name": "COLUMBIA COUNTY-ELLISVILLE",
        "Population Served": 75,
        "City": "LAKE CITY"
      },
      "geometry": {
        "type": "Point",
        "coordinates": [
          -82.6394803,
          30.1894252
        ]
      }
    },
    {
      "type": "Feature",
      "properties": {
        "Water System Name": "COMMERCE PARK SUN ESTATES 1",
        "Population Served": 93,
        "City": "OCALA"
      },
      "geometry": {
        "type": "Point",
        "coordinates": [
          -82.1400923,
          29.1871986
        ]
      }
    },
    {
      "type": "Feature",
      "properties": {
        "Water System Name": "COMMERCE PARK SUN ESTATES 2",
        "Population Served": 42,
        "City": "OCALA"
      },
      "geometry": {
        "type": "Point",
        "coordinates": [
          -82.1400923,
          29.1871986
        ]
      }
    },
    {
      "type": "Feature",
      "properties": {
        "Water System Name": "COOL BREEZE MHP",
        "Population Served": 73,
        "City": "LAKE CITY"
      },
      "geometry": {
        "type": "Point",
        "coordinates": [
          -82.6394803,
          30.1894252
        ]
      }
    },
    {
      "type": "Feature",
      "properties": {
        "Water System Name": "COOPER CITY",
        "Population Served": 33752,
        "City": "COOPER CITY"
      },
      "geometry": {
        "type": "Point",
        "coordinates": [
          -80.2695109,
          26.057783
        ]
      }
    },
    {
      "type": "Feature",
      "properties": {
        "Water System Name": "CORAL SPRINGS, CITY OF",
        "Population Served": 65000,
        "City": "CORAL SPRINGS"
      },
      "geometry": {
        "type": "Point",
        "coordinates": [
          -80.2706044,
          26.271192
        ]
      }
    },
    {
      "type": "Feature",
      "properties": {
        "Water System Name": "CORAL SPRINGS IMPROVEMENT DIST",
        "Population Served": 40000,
        "City": "CORAL SPRINGS"
      },
      "geometry": {
        "type": "Point",
        "coordinates": [
          -80.2706044,
          26.271192
        ]
      }
    },
    {
      "type": "Feature",
      "properties": {
        "Water System Name": "CORA-WIN COVE",
        "Population Served": 165,
        "City": "STUART"
      },
      "geometry": {
        "type": "Point",
        "coordinates": [
          -80.2519175,
          27.197983
        ]
      }
    },
    {
      "type": "Feature",
      "properties": {
        "Water System Name": "CORLEY ISLAND MOBILE MANOR",
        "Population Served": 250,
        "City": "LEESBURG"
      },
      "geometry": {
        "type": "Point",
        "coordinates": [
          -81.8778582,
          28.810823
        ]
      }
    },
    {
      "type": "Feature",
      "properties": {
        "Water System Name": "COTTAGE HILL WATER WORKS",
        "Population Served": 5639,
        "City": "CANTONMENT"
      },
      "geometry": {
        "type": "Point",
        "coordinates": [
          -87.344442,
          30.605427
        ]
      }
    },
    {
      "type": "Feature",
      "properties": {
        "Water System Name": "COTTONDALE WATER SYSTEM",
        "Population Served": 861,
        "City": "COTTONDALE"
      },
      "geometry": {
        "type": "Point",
        "coordinates": [
          -85.3765965,
          30.7971363
        ]
      }
    },
    {
      "type": "Feature",
      "properties": {
        "Water System Name": "COUNTRY AIRE EST. SERVICE CORP",
        "Population Served": 242,
        "City": "DADE CITY"
      },
      "geometry": {
        "type": "Point",
        "coordinates": [
          -82.1959178,
          28.3647248
        ]
      }
    },
    {
      "type": "Feature",
      "properties": {
        "Water System Name": "COUNTRY AIRE VILLAGE MHP",
        "Population Served": 650,
        "City": "ZEPHYRHILLS"
      },
      "geometry": {
        "type": "Point",
        "coordinates": [
          -82.1811947,
          28.2336196
        ]
      }
    },
    {
      "type": "Feature",
      "properties": {
        "Water System Name": "COUNTRY CLASS",
        "Population Served": 256,
        "City": "LAKELAND"
      },
      "geometry": {
        "type": "Point",
        "coordinates": [
          -81.9498042,
          28.0394654
        ]
      }
    },
    {
      "type": "Feature",
      "properties": {
        "Water System Name": "COUNTRY COVE MOBILE HOME PARK",
        "Population Served": 197,
        "City": "FORT PIERCE"
      },
      "geometry": {
        "type": "Point",
        "coordinates": [
          -80.3256056,
          27.4467056
        ]
      }
    },
    {
      "type": "Feature",
      "properties": {
        "Water System Name": "COUNTRY DALE ESTATES",
        "Population Served": 58,
        "City": "LAKE CITY"
      },
      "geometry": {
        "type": "Point",
        "coordinates": [
          -82.6394803,
          30.1894252
        ]
      }
    },
    {
      "type": "Feature",
      "properties": {
        "Water System Name": "COUNTRY LIFE FAMILY PARK",
        "Population Served": 215,
        "City": "LEESBURG"
      },
      "geometry": {
        "type": "Point",
        "coordinates": [
          -81.8778582,
          28.810823
        ]
      }
    },
    {
      "type": "Feature",
      "properties": {
        "Water System Name": "COUNTRY OAKS",
        "Population Served": 92,
        "City": "OCALA"
      },
      "geometry": {
        "type": "Point",
        "coordinates": [
          -82.1400923,
          29.1871986
        ]
      }
    },
    {
      "type": "Feature",
      "properties": {
        "Water System Name": "COUNTRY OAKS ADULT MHP",
        "Population Served": 36,
        "City": "PLANT CITY"
      },
      "geometry": {
        "type": "Point",
        "coordinates": [
          -82.1234803,
          28.01633
        ]
      }
    },
    {
      "type": "Feature",
      "properties": {
        "Water System Name": "COUNTRY OAKS MHP",
        "Population Served": 95,
        "City": "OCALA"
      },
      "geometry": {
        "type": "Point",
        "coordinates": [
          -82.1400923,
          29.1871986
        ]
      }
    },
    {
      "type": "Feature",
      "properties": {
        "Water System Name": "COUNTRYSIDE ESTATES",
        "Population Served": 140,
        "City": "BROOKSVILLE"
      },
      "geometry": {
        "type": "Point",
        "coordinates": [
          -82.3878709,
          28.5552719
        ]
      }
    },
    {
      "type": "Feature",
      "properties": {
        "Water System Name": "COUNTRYSIDE MHP",
        "Population Served": 50,
        "City": "THONOTOSASSA"
      },
      "geometry": {
        "type": "Point",
        "coordinates": [
          -82.3023128,
          28.0614065
        ]
      }
    },
    {
      "type": "Feature",
      "properties": {
        "Water System Name": "COUNTRYSIDE VILLAGE",
        "Population Served": 60,
        "City": "TAMPA"
      },
      "geometry": {
        "type": "Point",
        "coordinates": [
          -82.458444,
          27.9477595
        ]
      }
    },
    {
      "type": "Feature",
      "properties": {
        "Water System Name": "COUNTRY VILLAGE MHP",
        "Population Served": 81,
        "City": "HUDSON"
      },
      "geometry": {
        "type": "Point",
        "coordinates": [
          -82.6932847,
          28.3617709
        ]
      }
    },
    {
      "type": "Feature",
      "properties": {
        "Water System Name": "COUNTRY VILLAS",
        "Population Served": 64,
        "City": "LAKELAND"
      },
      "geometry": {
        "type": "Point",
        "coordinates": [
          -81.9498042,
          28.0394654
        ]
      }
    },
    {
      "type": "Feature",
      "properties": {
        "Water System Name": "COUNTRY WALK",
        "Population Served": 178,
        "City": "BELLEVIEW"
      },
      "geometry": {
        "type": "Point",
        "coordinates": [
          -82.0495108,
          29.0625783
        ]
      }
    },
    {
      "type": "Feature",
      "properties": {
        "Water System Name": "COUNTRY WALK UTILITIES, INC.",
        "Population Served": 167,
        "City": "LAKE PLACID"
      },
      "geometry": {
        "type": "Point",
        "coordinates": [
          -81.3628502,
          27.2930999
        ]
      }
    },
    {
      "type": "Feature",
      "properties": {
        "Water System Name": "COVE WATER SYSTEM, INC.",
        "Population Served": 126,
        "City": "TAVARES"
      },
      "geometry": {
        "type": "Point",
        "coordinates": [
          -81.731332,
          28.8021812
        ]
      }
    },
    {
      "type": "Feature",
      "properties": {
        "Water System Name": "CRAWFORD 3 B'S MHP",
        "Population Served": 70,
        "City": "PLANT CITY"
      },
      "geometry": {
        "type": "Point",
        "coordinates": [
          -82.1234803,
          28.01633
        ]
      }
    },
    {
      "type": "Feature",
      "properties": {
        "Water System Name": "CREEKSIDE ESTATES PC, LLC",
        "Population Served": 30,
        "City": "PANAMA CITY"
      },
      "geometry": {
        "type": "Point",
        "coordinates": [
          -85.6602936,
          30.1586518
        ]
      }
    },
    {
      "type": "Feature",
      "properties": {
        "Water System Name": "CRESCENT CITY WTP",
        "Population Served": 1900,
        "City": "CRESCENT CITY"
      },
      "geometry": {
        "type": "Point",
        "coordinates": [
          -81.5106288,
          29.4302514
        ]
      }
    },
    {
      "type": "Feature",
      "properties": {
        "Water System Name": "CRESCENT HEIGHTS S/D(CONSEC)",
        "Population Served": 969,
        "City": "ORLANDO"
      },
      "geometry": {
        "type": "Point",
        "coordinates": [
          -81.3790304,
          28.5421109
        ]
      }
    },
    {
      "type": "Feature",
      "properties": {
        "Water System Name": "CRESCENT HILLS SUBDIVISION",
        "Population Served": 88,
        "City": "CRESCENT CITY"
      },
      "geometry": {
        "type": "Point",
        "coordinates": [
          -81.5106288,
          29.4302514
        ]
      }
    },
    {
      "type": "Feature",
      "properties": {
        "Water System Name": "CRESTRIDGE UTILITIES",
        "Population Served": 1209,
        "City": "HOLIDAY"
      },
      "geometry": {
        "type": "Point",
        "coordinates": [
          -82.740074,
          28.1879273
        ]
      }
    },
    {
      "type": "Feature",
      "properties": {
        "Water System Name": "CRESTVIEW, CITY OF WATER DEPT.",
        "Population Served": 34789,
        "City": "CRESTVIEW"
      },
      "geometry": {
        "type": "Point",
        "coordinates": [
          -86.5705084,
          30.7621326
        ]
      }
    },
    {
      "type": "Feature",
      "properties": {
        "Water System Name": "CROFT BAY VILLAGE",
        "Population Served": 48,
        "City": "HERNANDO"
      },
      "geometry": {
        "type": "Point",
        "coordinates": [
          -82.3745401,
          28.8999815
        ]
      }
    },
    {
      "type": "Feature",
      "properties": {
        "Water System Name": "CROFT'S MOBILE HOME PARK",
        "Population Served": 40,
        "City": "LAKELAND"
      },
      "geometry": {
        "type": "Point",
        "coordinates": [
          -81.9498042,
          28.0394654
        ]
      }
    },
    {
      "type": "Feature",
      "properties": {
        "Water System Name": "CROSS CITY WTP",
        "Population Served": 2550,
        "City": "CROSS CITY"
      },
      "geometry": {
        "type": "Point",
        "coordinates": [
          -83.1251306,
          29.6343977
        ]
      }
    },
    {
      "type": "Feature",
      "properties": {
        "Water System Name": "CROSS CREEK MHP",
        "Population Served": 156,
        "City": "HAWTHORNE"
      },
      "geometry": {
        "type": "Point",
        "coordinates": [
          -82.0869578,
          29.5918856
        ]
      }
    },
    {
      "type": "Feature",
      "properties": {
        "Water System Name": "CRYSTAL ACRES MHP",
        "Population Served": 75,
        "City": "CRYSTAL RIVER"
      },
      "geometry": {
        "type": "Point",
        "coordinates": [
          -82.5926012,
          28.902479
        ]
      }
    },
    {
      "type": "Feature",
      "properties": {
        "Water System Name": "CRYSTAL KAY MOBILE HOME PARK",
        "Population Served": 39,
        "City": "RUSKIN"
      },
      "geometry": {
        "type": "Point",
        "coordinates": [
          -82.4331528,
          27.7208575
        ]
      }
    },
    {
      "type": "Feature",
      "properties": {
        "Water System Name": "CRYSTAL POINTE",
        "Population Served": 94,
        "City": "DUNNELLON"
      },
      "geometry": {
        "type": "Point",
        "coordinates": [
          -82.4609331,
          29.0491426
        ]
      }
    },
    {
      "type": "Feature",
      "properties": {
        "Water System Name": "CRYSTAL RIVER, CITY OF",
        "Population Served": 4528,
        "City": "CRYSTAL RIVER"
      },
      "geometry": {
        "type": "Point",
        "coordinates": [
          -82.5926012,
          28.902479
        ]
      }
    },
    {
      "type": "Feature",
      "properties": {
        "Water System Name": "CRYSTAL SPRINGS ESTATES MHP",
        "Population Served": 350,
        "City": "JACKSONVILLE"
      },
      "geometry": {
        "type": "Point",
        "coordinates": [
          -81.655651,
          30.3321838
        ]
      }
    },
    {
      "type": "Feature",
      "properties": {
        "Water System Name": "CSU WTP NO. 1",
        "Population Served": 19699,
        "City": "THE VILLAGES"
      },
      "geometry": {
        "type": "Point",
        "coordinates": [
          -82.0041758,
          28.9269978
        ]
      }
    },
    {
      "type": "Feature",
      "properties": {
        "Water System Name": "CYPRESS ACRES MOBILE HOME PARK",
        "Population Served": 78,
        "City": "WINTER HAVEN"
      },
      "geometry": {
        "type": "Point",
        "coordinates": [
          -81.7328568,
          28.0222435
        ]
      }
    },
    {
      "type": "Feature",
      "properties": {
        "Water System Name": "CYPRESS CAY PRESERVE MASTER ASSOCIATION",
        "Population Served": 1500,
        "City": "TAMPA"
      },
      "geometry": {
        "type": "Point",
        "coordinates": [
          -82.458444,
          27.9477595
        ]
      }
    },
    {
      "type": "Feature",
      "properties": {
        "Water System Name": "CYPRESS COVE",
        "Population Served": 289,
        "City": "KISSIMMEE"
      },
      "geometry": {
        "type": "Point",
        "coordinates": [
          -81.4075838,
          28.2918995
        ]
      }
    },
    {
      "type": "Feature",
      "properties": {
        "Water System Name": "CYPRESS COVE - FOXWOOD",
        "Population Served": 1588,
        "City": "LAND O' LAKES"
      },
      "geometry": {
        "type": "Point",
        "coordinates": [
          -82.4575938,
          28.2188992
        ]
      }
    },
    {
      "type": "Feature",
      "properties": {
        "Water System Name": "CYPRESS COVE MHP",
        "Population Served": 60,
        "City": "LEESBURG"
      },
      "geometry": {
        "type": "Point",
        "coordinates": [
          -81.8778582,
          28.810823
        ]
      }
    },
    {
      "type": "Feature",
      "properties": {
        "Water System Name": "CYPRESS CREEK",
        "Population Served": 191,
        "City": "LEESBURG"
      },
      "geometry": {
        "type": "Point",
        "coordinates": [
          -81.8778582,
          28.810823
        ]
      }
    },
    {
      "type": "Feature",
      "properties": {
        "Water System Name": "CYPRESS GARDENS M.H. ; R.V. PARK",
        "Population Served": 250,
        "City": "WINTER HAVEN"
      },
      "geometry": {
        "type": "Point",
        "coordinates": [
          -81.7328568,
          28.0222435
        ]
      }
    },
    {
      "type": "Feature",
      "properties": {
        "Water System Name": "CYPRESS LANDING WTP",
        "Population Served": 38,
        "City": "SAINT JOHNS"
      },
      "geometry": {
        "type": "Point",
        "coordinates": [
          -81.4308677,
          29.4228339
        ]
      }
    },
    {
      "type": "Feature",
      "properties": {
        "Water System Name": "CYPRESS MHP",
        "Population Served": 87,
        "City": "FORT PIERCE"
      },
      "geometry": {
        "type": "Point",
        "coordinates": [
          -80.3256056,
          27.4467056
        ]
      }
    },
    {
      "type": "Feature",
      "properties": {
        "Water System Name": "CYPRESS MOBILE HOME PARK",
        "Population Served": 60,
        "City": "VALRICO"
      },
      "geometry": {
        "type": "Point",
        "coordinates": [
          -82.2578687,
          27.9458566
        ]
      }
    },
    {
      "type": "Feature",
      "properties": {
        "Water System Name": "DADE CITY WATER DEPT",
        "Population Served": 15561,
        "City": "DADE CITY"
      },
      "geometry": {
        "type": "Point",
        "coordinates": [
          -82.1959178,
          28.3647248
        ]
      }
    },
    {
      "type": "Feature",
      "properties": {
        "Water System Name": "DADE JUVENILE RESIDENTIAL FACILITY",
        "Population Served": 75,
        "City": "FLORIDA CITY"
      },
      "geometry": {
        "type": "Point",
        "coordinates": [
          -80.479102,
          25.4480101
        ]
      }
    },