{
  "type": "FeatureCollection",
  "features": [
    {
      "type": "Feature",
      "properties": {
        "Water System Name": "ACE MOBILE HOME PARK",
        "Population Served": 32,
        "City": "DUBUQUE"
      },
      "geometry": {
        "type": "Point",
        "coordinates": [
          -90.6647985,
          42.5006243
        ]
      }
    },
    {
      "type": "Feature",
      "properties": {
        "Water System Name": "ACKLEY MUNICIPAL WATER WORKS",
        "Population Served": 1599,
        "City": "ACKLEY"
      },
      "geometry": {
        "type": "Point",
        "coordinates": [
          -93.0526788,
          42.5539454
        ]
      }
    },
    {
      "type": "Feature",
      "properties": {
        "Water System Name": "ADAIR MUNICIPAL WATER SUPPLY",
        "Population Served": 799,
        "City": "ADAIR"
      },
      "geometry": {
        "type": "Point",
        "coordinates": [
          -94.6435794,
          41.5004425
        ]
      }
    },
    {
      "type": "Feature",
      "properties": {
        "Water System Name": "ADEL MUNICIPAL WATER WORKS",
        "Population Served": 6453,
        "City": "ADEL"
      },
      "geometry": {
        "type": "Point",
        "coordinates": [
          -94.0185176,
          41.6174123
        ]
      }
    },
    {
      "type": "Feature",
      "properties": {
        "Water System Name": "AGENCY WATER WORKS",
        "Population Served": 620,
        "City": "AGENCY"
      },
      "geometry": {
        "type": "Point",
        "coordinates": [
          -92.3068054,
          40.9949671
        ]
      }
    },
    {
      "type": "Feature",
      "properties": {
        "Water System Name": "AINSWORTH WATER WORKS",
        "Population Served": 511,
        "City": "AINSWORTH"
      },
      "geometry": {
        "type": "Point",
        "coordinates": [
          -91.5523838,
          41.2889125
        ]
      }
    },
    {
      "type": "Feature",
      "properties": {
        "Water System Name": "AKRON, CITY OF",
        "Population Served": 1558,
        "City": "AKRON"
      },
      "geometry": {
        "type": "Point",
        "coordinates": [
          -96.5579415,
          42.8288056
        ]
      }
    },
    {
      "type": "Feature",
      "properties": {
        "Water System Name": "ALBERT CITY MUNI WATER SUPPLY",
        "Population Served": 677,
        "City": "ALBERT CITY"
      },
      "geometry": {
        "type": "Point",
        "coordinates": [
          -94.9483487,
          42.78172
        ]
      }
    },
    {
      "type": "Feature",
      "properties": {
        "Water System Name": "ALBIA MUNICIPAL WATER WORKS",
        "Population Served": 3721,
        "City": "ALBIA"
      },
      "geometry": {
        "type": "Point",
        "coordinates": [
          -92.8075217,
          41.0264561
        ]
      }
    },
    {
      "type": "Feature",
      "properties": {
        "Water System Name": "ALBION WATER DEPARTMENT",
        "Population Served": 505,
        "City": "ALBION"
      },
      "geometry": {
        "type": "Point",
        "coordinates": [
          -92.990136,
          42.1124226
        ]
      }
    },
    {
      "type": "Feature",
      "properties": {
        "Water System Name": "ALBURNETT WATER SUPPLY",
        "Population Served": 675,
        "City": "ALBURNETT"
      },
      "geometry": {
        "type": "Point",
        "coordinates": [
          -91.6188204,
          42.14826
        ]
      }
    },
    {
      "type": "Feature",
      "properties": {
        "Water System Name": "ALDEN WATER SUPPLY",
        "Population Served": 763,
        "City": "ALDEN"
      },
      "geometry": {
        "type": "Point",
        "coordinates": [
          -93.3762693,
          42.5201895
        ]
      }
    },
    {
      "type": "Feature",
      "properties": {
        "Water System Name": "ALEXANDER WATER DEPT",
        "Population Served": 164,
        "City": "ALEXANDER"
      },
      "geometry": {
        "type": "Point",
        "coordinates": [
          -93.4765653,
          42.8060488
        ]
      }
    },
    {
      "type": "Feature",
      "properties": {
        "Water System Name": "ALGONA MUNICIPAL UTILITIES",
        "Population Served": 5487,
        "City": "ALGONA"
      },
      "geometry": {
        "type": "Point",
        "coordinates": [
          -94.233019,
          43.0699663
        ]
      }
    },
    {
      "type": "Feature",
      "properties": {
        "Water System Name": "ALLERTON WATER WORKS",
        "Population Served": 430,
        "City": "ALLERTON"
      },
      "geometry": {
        "type": "Point",
        "coordinates": [
          -93.3650143,
          40.7066974
        ]
      }
    },
    {
      "type": "Feature",
      "properties": {
        "Water System Name": "ALLISON WATER SUPPLY",
        "Population Served": 966,
        "City": "ALLISON"
      },
      "geometry": {
        "type": "Point",
        "coordinates": [
          -92.7951213,
          42.7556385
        ]
      }
    },
    {
      "type": "Feature",
      "properties": {
        "Water System Name": "ALPINE PARK",
        "Population Served": 932,
        "City": "DUBUQUE"
      },
      "geometry": {
        "type": "Point",
        "coordinates": [
          -90.6647985,
          42.5006243
        ]
      }
    },
    {
      "type": "Feature",
      "properties": {
        "Water System Name": "ALTA MUNICIPAL WATER PLANT",
        "Population Served": 2087,
        "City": "ALTA"
      },
      "geometry": {
        "type": "Point",
        "coordinates": [
          -95.3039943,
          42.6736893
        ]
      }
    },
    {
      "type": "Feature",
      "properties": {
        "Water System Name": "ALTA VISTA WATER DEPARTMENT",
        "Population Served": 227,
        "City": "ALTA VISTA"
      },
      "geometry": {
        "type": "Point",
        "coordinates": [
          -92.4169874,
          43.1984396
        ]
      }
    },
    {
      "type": "Feature",
      "properties": {
        "Water System Name": "ALTON MUNICIPAL WATER DEPARTMENT",
        "Population Served": 1248,
        "City": "ALTON"
      },
      "geometry": {
        "type": "Point",
        "coordinates": [
          -96.0105286,
          42.9872149
        ]
      }
    },
    {
      "type": "Feature",
      "properties": {
        "Water System Name": "ALTOONA WATER SUPPLY",
        "Population Served": 19565,
        "City": "ALTOONA"
      },
      "geometry": {
        "type": "Point",
        "coordinates": [
          -93.4696031,
          41.6437308
        ]
      }
    },
    {
      "type": "Feature",
      "properties": {
        "Water System Name": "ALVORD MUNICIPAL WATER SUPPLY",
        "Population Served": 206,
        "City": "ALVORD"
      },
      "geometry": {
        "type": "Point",
        "coordinates": [
          -96.3011207,
          43.3421522
        ]
      }
    },
    {
      "type": "Feature",
      "properties": {
        "Water System Name": "AMANA SOCIETY WATER SYSTEM NORTH",
        "Population Served": 1248,
        "City": "MIDDLE AMANA"
      },
      "geometry": {
        "type": "Point",
        "coordinates": [
          -91.8996227,
          41.7955624
        ]
      }
    },
    {
      "type": "Feature",
      "properties": {
        "Water System Name": "AMES WATER TREATMENT PLANT",
        "Population Served": 55177,
        "City": "AMES"
      },
      "geometry": {
        "type": "Point",
        "coordinates": [
          -93.6170448,
          42.0267567
        ]
      }
    },
    {
      "type": "Feature",
      "properties": {
        "Water System Name": "ANAMOSA MUNICIPAL WATER SUPPLY",
        "Population Served": 4457,
        "City": "ANAMOSA"
      },
      "geometry": {
        "type": "Point",
        "coordinates": [
          -91.2851594,
          42.1083371
        ]
      }
    },
    {
      "type": "Feature",
      "properties": {
        "Water System Name": "ANAMOSA STATE  PENITENTIARY",
        "Population Served": 1230,
        "City": "ANAMOSA"
      },
      "geometry": {
        "type": "Point",
        "coordinates": [
          -91.2851594,
          42.1083371
        ]
      }
    },
    {
      "type": "Feature",
      "properties": {
        "Water System Name": "ANDOVER WATER SUPPLY",
        "Population Served": 109,
        "City": "ANDOVER"
      },
      "geometry": {
        "type": "Point",
        "coordinates": [
          -90.2517854,
          41.9791115
        ]
      }
    },
    {
      "type": "Feature",
      "properties": {
        "Water System Name": "ANDREW WATER SUPPLY",
        "Population Served": 380,
        "City": "ANDREW"
      },
      "geometry": {
        "type": "Point",
        "coordinates": [
          -90.5923542,
          42.1536292
        ]
      }
    },
    {
      "type": "Feature",
      "properties": {
        "Water System Name": "ANITA MUNICIPAL UTILITIES",
        "Population Served": 963,
        "City": "ANITA"
      },
      "geometry": {
        "type": "Point",
        "coordinates": [
          -94.7650448,
          41.4451323
        ]
      }
    },
    {
      "type": "Feature",
      "properties": {
        "Water System Name": "ANKENY, CITY OF",
        "Population Served": 68090,
        "City": "ANKENY"
      },
      "geometry": {
        "type": "Point",
        "coordinates": [
          -93.605092,
          41.7320796
        ]
      }
    },
    {
      "type": "Feature",
      "properties": {
        "Water System Name": "ANTHON MUNICIPAL WATER SYSTEM",
        "Population Served": 545,
        "City": "ANTHON"
      },
      "geometry": {
        "type": "Point",
        "coordinates": [
          -95.8665144,
          42.3883493
        ]
      }
    },
    {
      "type": "Feature",
      "properties": {
        "Water System Name": "APLINGTON WATER SUPPLY",
        "Population Served": 1126,
        "City": "APLINGTON"
      },
      "geometry": {
        "type": "Point",
        "coordinates": [
          -92.8837589,
          42.5840547
        ]
      }
    },
    {
      "type": "Feature",
      "properties": {
        "Water System Name": "ARCADIA WATER SUPPLY",
        "Population Served": 525,
        "City": "ARCADIA"
      },
      "geometry": {
        "type": "Point",
        "coordinates": [
          -95.0455512,
          42.0868919
        ]
      }
    },
    {
      "type": "Feature",
      "properties": {
        "Water System Name": "ARLINGTON WATER SUPPLY",
        "Population Served": 419,
        "City": "ARLINGTON"
      },
      "geometry": {
        "type": "Point",
        "coordinates": [
          -91.6714453,
          42.748965
        ]
      }
    },
    {
      "type": "Feature",
      "properties": {
        "Water System Name": "ARMSTRONG WATER SUPPLY",
        "Population Served": 875,
        "City": "ARMSTRONG"
      },
      "geometry": {
        "type": "Point",
        "coordinates": [
          -94.4801383,
          43.3961637
        ]
      }
    },
    {
      "type": "Feature",
      "properties": {
        "Water System Name": "ARNOLDS PARK WATER DEPARTMENT",
        "Population Served": 1110,
        "City": "ARNOLDS PARK"
      },
      "geometry": {
        "type": "Point",
        "coordinates": [
          -95.1258882,
          43.3704506
        ]
      }
    },
    {
      "type": "Feature",
      "properties": {
        "Water System Name": "ARTHUR MUNICIPAL WATER SUPPLY",
        "Population Served": 222,
        "City": "ARTHUR"
      },
      "geometry": {
        "type": "Point",
        "coordinates": [
          -95.3475647,
          42.3353
        ]
      }
    },
    {
      "type": "Feature",
      "properties": {
        "Water System Name": "ASBURY MUNICIPAL WATER SYSTEM",
        "Population Served": 5943,
        "City": "ASBURY"
      },
      "geometry": {
        "type": "Point",
        "coordinates": [
          -90.7526948,
          42.5136191
        ]
      }
    },
    {
      "type": "Feature",
      "properties": {
        "Water System Name": "ASHTON MUNICIPAL WATER DEPARTMENT",
        "Population Served": 436,
        "City": "ASHTON"
      },
      "geometry": {
        "type": "Point",
        "coordinates": [
          -95.7909473,
          43.3112893
        ]
      }
    },
    {
      "type": "Feature",
      "properties": {
        "Water System Name": "ATALISSA MUNICIPAL WATER SUPPLY",
        "Population Served": 296,
        "City": "ATALISSA"
      },
      "geometry": {
        "type": "Point",
        "coordinates": [
          -91.1659888,
          41.5711357
        ]
      }
    },
    {
      "type": "Feature",
      "properties": {
        "Water System Name": "ATKINS MUNICIPAL WATER WORKS",
        "Population Served": 2056,
        "City": "ATKINS"
      },
      "geometry": {
        "type": "Point",
        "coordinates": [
          -91.8619127,
          41.9968696
        ]
      }
    },
    {
      "type": "Feature",
      "properties": {
        "Water System Name": "ATLANTIC MUNICIPAL UTILITIES",
        "Population Served": 7252,
        "City": "ATLANTIC"
      },
      "geometry": {
        "type": "Point",
        "coordinates": [
          -95.0138705,
          41.403691
        ]
      }
    },
    {
      "type": "Feature",
      "properties": {
        "Water System Name": "AUBURN WATER SUPPLY",
        "Population Served": 265,
        "City": "AUBURN"
      },
      "geometry": {
        "type": "Point",
        "coordinates": [
          -94.8777679,
          42.2505196
        ]
      }
    },
    {
      "type": "Feature",
      "properties": {
        "Water System Name": "AUDUBON WATER SUPPLY",
        "Population Served": 2053,
        "City": "AUDUBON"
      },
      "geometry": {
        "type": "Point",
        "coordinates": [
          -94.9307636,
          41.7216265
        ]
      }
    },
    {
      "type": "Feature",
      "properties": {
        "Water System Name": "AURELIA WATER SUPPLY",
        "Population Served": 968,
        "City": "AURELIA"
      },
      "geometry": {
        "type": "Point",
        "coordinates": [
          -95.4366206,
          42.7125676
        ]
      }
    },
    {
      "type": "Feature",
      "properties": {
        "Water System Name": "AUTUMN RIDGE ESTATES MHP",
        "Population Served": 1032,
        "City": "ANKENY"
      },
      "geometry": {
        "type": "Point",
        "coordinates": [
          -93.605092,
          41.7320796
        ]
      }
    },
    {
      "type": "Feature",
      "properties": {
        "Water System Name": "AVOCA WATER WORKS",
        "Population Served": 1683,
        "City": "AVOCA"
      },
      "geometry": {
        "type": "Point",
        "coordinates": [
          -95.3394897,
          41.4776567
        ]
      }
    },
    {
      "type": "Feature",
      "properties": {
        "Water System Name": "BACON ADDITION",
        "Population Served": 81,
        "City": "MONTICELLO"
      },
      "geometry": {
        "type": "Point",
        "coordinates": [
          -91.1869428,
          42.2382752
        ]
      }
    },
    {
      "type": "Feature",
      "properties": {
        "Water System Name": "BADGER WATER SUPPLY",
        "Population Served": 561,
        "City": "BADGER"
      },
      "geometry": {
        "type": "Point",
        "coordinates": [
          -94.1461643,
          42.614418
        ]
      }
    },
    {
      "type": "Feature",
      "properties": {
        "Water System Name": "BALDWIN WATER SUPPLY",
        "Population Served": 99,
        "City": "BALDWIN"
      },
      "geometry": {
        "type": "Point",
        "coordinates": [
          -90.8409548,
          42.0730929
        ]
      }
    },
    {
      "type": "Feature",
      "properties": {
        "Water System Name": "BANCROFT WATER SUPPLY",
        "Population Served": 744,
        "City": "BANCROFT"
      },
      "geometry": {
        "type": "Point",
        "coordinates": [
          -94.2182218,
          43.2930198
        ]
      }
    },
    {
      "type": "Feature",
      "properties": {
        "Water System Name": "BARNES CITY WATER SUPPLY",
        "Population Served": 156,
        "City": "BARNES CITY"
      },
      "geometry": {
        "type": "Point",
        "coordinates": [
          -92.468393,
          41.5082306
        ]
      }
    },
    {
      "type": "Feature",
      "properties": {
        "Water System Name": "BARNUM WATER SUPPLY",
        "Population Served": 175,
        "City": "BARNUM"
      },
      "geometry": {
        "type": "Point",
        "coordinates": [
          -94.3654587,
          42.5090252
        ]
      }
    },
    {
      "type": "Feature",
      "properties": {
        "Water System Name": "BATAVIA WATER WORKS",
        "Population Served": 430,
        "City": "BATAVIA"
      },
      "geometry": {
        "type": "Point",
        "coordinates": [
          -92.1674331,
          40.9940985
        ]
      }
    },
    {
      "type": "Feature",
      "properties": {
        "Water System Name": "BATTLE CREEK WATER SUPPLY",
        "Population Served": 700,
        "City": "BATTLE CREEK"
      },
      "geometry": {
        "type": "Point",
        "coordinates": [
          -95.5986135,
          42.315544
        ]
      }
    },
    {
      "type": "Feature",
      "properties": {
        "Water System Name": "BAXTER WATER SUPPLY",
        "Population Served": 1002,
        "City": "BAXTER"
      },
      "geometry": {
        "type": "Point",
        "coordinates": [
          -93.1515905,
          41.8260998
        ]
      }
    },
    {
      "type": "Feature",
      "properties": {
        "Water System Name": "BAYARD WATER SUPPLY",
        "Population Served": 405,
        "City": "BAYARD"
      },
      "geometry": {
        "type": "Point",
        "coordinates": [
          -94.5582666,
          41.8520326
        ]
      }
    },
    {
      "type": "Feature",
      "properties": {
        "Water System Name": "BEAMAN WATER SUPPLY",
        "Population Served": 161,
        "City": "BEAMAN"
      },
      "geometry": {
        "type": "Point",
        "coordinates": [
          -92.8235341,
          42.2197079
        ]
      }
    },
    {
      "type": "Feature",
      "properties": {
        "Water System Name": "BECKER WATER AND ROAD",
        "Population Served": 50,
        "City": "FORT DODGE"
      },
      "geometry": {
        "type": "Point",
        "coordinates": [
          -94.1910044,
          42.5044017
        ]
      }
    },
    {
      "type": "Feature",
      "properties": {
        "Water System Name": "BEDFORD WATER WORKS",
        "Population Served": 1508,
        "City": "BEDFORD"
      },
      "geometry": {
        "type": "Point",
        "coordinates": [
          -94.719957,
          40.6680798
        ]
      }
    },
    {
      "type": "Feature",
      "properties": {
        "Water System Name": "BEEDS LAKE HOME OWNERS ASSOCIATION",
        "Population Served": 75,
        "City": "HAMPTON"
      },
      "geometry": {
        "type": "Point",
        "coordinates": [
          -93.2080861,
          42.7424776
        ]
      }
    },
    {
      "type": "Feature",
      "properties": {
        "Water System Name": "BELLE PLAINE WATER DEPT",
        "Population Served": 2380,
        "City": "BELLE PLAINE"
      },
      "geometry": {
        "type": "Point",
        "coordinates": [
          -92.277323,
          41.8969202
        ]
      }
    },
    {
      "type": "Feature",
      "properties": {
        "Water System Name": "BELLEVUE MUNICIPAL UTILITIES",
        "Population Served": 2363,
        "City": "BELLEVUE"
      },
      "geometry": {
        "type": "Point",
        "coordinates": [
          -90.4230824,
          42.2587152
        ]
      }
    },
    {
      "type": "Feature",
      "properties": {
        "Water System Name": "BELMOND WATER SUPPLY",
        "Population Served": 2463,
        "City": "BELMOND"
      },
      "geometry": {
        "type": "Point",
        "coordinates": [
          -93.6143413,
          42.8459977
        ]
      }
    },
    {
      "type": "Feature",
      "properties": {
        "Water System Name": "BENEFIT WATER DISTRICT #2",
        "Population Served": 100,
        "City": "BOONE"
      },
      "geometry": {
        "type": "Point",
        "coordinates": [
          -93.8802202,
          42.0596994
        ]
      }
    },
    {
      "type": "Feature",
      "properties": {
        "Water System Name": "BENNETT WATERWORKS",
        "Population Served": 347,
        "City": "BENNETT"
      },
      "geometry": {
        "type": "Point",
        "coordinates": [
          -90.9737626,
          41.7403023
        ]
      }
    },
    {
      "type": "Feature",
      "properties": {
        "Water System Name": "BEREA HEIGHTS INC",
        "Population Served": 33,
        "City": "SIOUX CITY"
      },
      "geometry": {
        "type": "Point",
        "coordinates": [
          -96.4058782,
          42.4966815
        ]
      }
    },
    {
      "type": "Feature",
      "properties": {
        "Water System Name": "BERNARD WATER SYSTEM",
        "Population Served": 114,
        "City": "BERNARD"
      },
      "geometry": {
        "type": "Point",
        "coordinates": [
          -90.8315632,
          42.3124634
        ]
      }
    },
    {
      "type": "Feature",
      "properties": {
        "Water System Name": "BERTRAM WATER SUPPLY",
        "Population Served": 75,
        "City": "BERTRAM"
      },
      "geometry": {
        "type": "Point",
        "coordinates": [
          -91.5351856,
          41.9500969
        ]
      }
    },
    {
      "type": "Feature",
      "properties": {
        "Water System Name": "BEYONDER GETAWAY AT SLEEPY HOLLOW",
        "Population Served": 70,
        "City": "OXFORD"
      },
      "geometry": {
        "type": "Point",
        "coordinates": [
          -91.7907361,
          41.7233582
        ]
      }
    },
    {
      "type": "Feature",
      "properties": {
        "Water System Name": "BIG CREEK BLUFFS",
        "Population Served": 80,
        "City": "BERTRAM"
      },
      "geometry": {
        "type": "Point",
        "coordinates": [
          -91.5351856,
          41.9500969
        ]
      }
    },
    {
      "type": "Feature",
      "properties": {
        "Water System Name": "BIRMINGHAM WATER SUPPLY",
        "Population Served": 367,
        "City": "BIRMINGHAM"
      },
      "geometry": {
        "type": "Point",
        "coordinates": [
          -91.9484649,
          40.8790701
        ]
      }
    },
    {
      "type": "Feature",
      "properties": {
        "Water System Name": "BLAIRSBURG WATER SUPPLY",
        "Population Served": 177,
        "City": "BLAIRSBURG"
      },
      "geometry": {
        "type": "Point",
        "coordinates": [
          -93.6429769,
          42.4798547
        ]
      }
    },
    {
      "type": "Feature",
      "properties": {
        "Water System Name": "BLAIRS FERRY MANOR",
        "Population Served": 65,
        "City": "TODDVILLE"
      },
      "geometry": {
        "type": "Point",
        "coordinates": [
          -91.7167538,
          42.0986015
        ]
      }
    },
    {
      "type": "Feature",
      "properties": {
        "Water System Name": "BLAIRSTOWN WATER SUPPLY",
        "Population Served": 738,
        "City": "BLAIRSTOWN"
      },
      "geometry": {
        "type": "Point",
        "coordinates": [
          -92.0845975,
          41.9085228
        ]
      }
    },
    {
      "type": "Feature",
      "properties": {
        "Water System Name": "BLAKESBURG MUNICIPAL WATER WORKS",
        "Population Served": 305,
        "City": "BLAKESBURG"
      },
      "geometry": {
        "type": "Point",
        "coordinates": [
          -92.6364321,
          40.9639861
        ]
      }
    },
    {
      "type": "Feature",
      "properties": {
        "Water System Name": "BLENCOE MUNICIPAL WATERWORKS",
        "Population Served": 224,
        "City": "BLENCOE"
      },
      "geometry": {
        "type": "Point",
        "coordinates": [
          -96.0808117,
          41.9302337
        ]
      }
    },
    {
      "type": "Feature",
      "properties": {
        "Water System Name": "BLOOMFIELD MUNI WATER DEPT",
        "Population Served": 2682,
        "City": "BLOOMFIELD"
      },
      "geometry": {
        "type": "Point",
        "coordinates": [
          -92.4143872,
          40.7510398
        ]
      }
    },
    {
      "type": "Feature",
      "properties": {
        "Water System Name": "BODE MUNICIPAL WATER SUPPLY",
        "Population Served": 304,
        "City": "BODE"
      },
      "geometry": {
        "type": "Point",
        "coordinates": [
          -94.2874077,
          42.8682574
        ]
      }
    },
    {
      "type": "Feature",
      "properties": {
        "Water System Name": "BONAPARTE WATER SUPPLY",
        "Population Served": 390,
        "City": "BONAPARTE"
      },
      "geometry": {
        "type": "Point",
        "coordinates": [
          -91.802034,
          40.6982985
        ]
      }
    },
    {
      "type": "Feature",
      "properties": {
        "Water System Name": "BONDURANT MUNI WATER SUPPLY",
        "Population Served": 7610,
        "City": "BONDURANT"
      },
      "geometry": {
        "type": "Point",
        "coordinates": [
          -93.462157,
          41.7005441
        ]
      }
    },
    {
      "type": "Feature",
      "properties": {
        "Water System Name": "BOONE WATER WORKS",
        "Population Served": 12704,
        "City": "BOONE"
      },
      "geometry": {
        "type": "Point",
        "coordinates": [
          -93.8802202,
          42.0596994
        ]
      }
    },
    {
      "type": "Feature",
      "properties": {
        "Water System Name": "BOYDEN MUNICIPAL WATER SUPPLY",
        "Population Served": 701,
        "City": "BOYDEN"
      },
      "geometry": {
        "type": "Point",
        "coordinates": [
          -96.005804,
          43.190935
        ]
      }
    },
    {
      "type": "Feature",
      "properties": {
        "Water System Name": "BRADDYVILLE WATER WORKS",
        "Population Served": 147,
        "City": "BRADDYVILLE"
      },
      "geometry": {
        "type": "Point",
        "coordinates": [
          -95.0299292,
          40.5783538
        ]
      }
    },
    {
      "type": "Feature",
      "properties": {
        "Water System Name": "BRANDON WATER SUPPLY",
        "Population Served": 341,
        "City": "BRANDON"
      },
      "geometry": {
        "type": "Point",
        "coordinates": [
          -92.0021228,
          42.3144359
        ]
      }
    },
    {
      "type": "Feature",
      "properties": {
        "Water System Name": "BRAYTON WATER SYSTEM",
        "Population Served": 143,
        "City": "BRAYTON"
      },
      "geometry": {
        "type": "Point",
        "coordinates": [
          -94.9241152,
          41.5443772
        ]
      }
    },
    {
      "type": "Feature",
      "properties": {
        "Water System Name": "BREDA WATER SUPPLY",
        "Population Served": 500,
        "City": "BREDA"
      },
      "geometry": {
        "type": "Point",
        "coordinates": [
          -94.9770476,
          42.1816358
        ]
      }
    },
    {
      "type": "Feature",
      "properties": {
        "Water System Name": "BREEZY POINTE SUBDIVISION",
        "Population Served": 130,
        "City": "MCGREGOR"
      },
      "geometry": {
        "type": "Point",
        "coordinates": [
          -91.1784542,
          43.0218327
        ]
      }
    },
    {
      "type": "Feature",
      "properties": {
        "Water System Name": "BRIGHTON MUNICIPAL WATER SUPPLY",
        "Population Served": 600,
        "City": "BRIGHTON"
      },
      "geometry": {
        "type": "Point",
        "coordinates": [
          -91.8199303,
          41.1748831
        ]
      }
    },
    {
      "type": "Feature",
      "properties": {
        "Water System Name": "BRISTOW MUNI WATER SUPPLY",
        "Population Served": 145,
        "City": "BRISTOW"
      },
      "geometry": {
        "type": "Point",
        "coordinates": [
          -92.9061091,
          42.7738667
        ]
      }
    },
    {
      "type": "Feature",
      "properties": {
        "Water System Name": "BRITTANY ESTATES HOMEOWNERS ASSOCIATION",
        "Population Served": 72,
        "City": "CEDAR RAPIDS"
      },
      "geometry": {
        "type": "Point",
        "coordinates": [
          -91.6704053,
          41.9758872
        ]
      }
    },
    {
      "type": "Feature",
      "properties": {
        "Water System Name": "BRITT WATER WORKS",
        "Population Served": 2064,
        "City": "BRITT"
      },
      "geometry": {
        "type": "Point",
        "coordinates": [
          -93.8019285,
          43.096967
        ]
      }
    },
    {
      "type": "Feature",
      "properties": {
        "Water System Name": "BRONSON WATER SUPPLY",
        "Population Served": 294,
        "City": "BRONSON"
      },
      "geometry": {
        "type": "Point",
        "coordinates": [
          -96.2123679,
          42.4096295
        ]
      }
    },
    {
      "type": "Feature",
      "properties": {
        "Water System Name": "BROOKHILL ESTATES",
        "Population Served": 41,
        "City": "DE WITT"
      },
      "geometry": {
        "type": "Point",
        "coordinates": [
          -90.5382696,
          41.8236361
        ]
      }
    },
    {
      "type": "Feature",
      "properties": {
        "Water System Name": "BROOKLYN WATER DEPARTMENT",
        "Population Served": 1505,
        "City": "BROOKLYN"
      },
      "geometry": {
        "type": "Point",
        "coordinates": [
          -92.4455938,
          41.7286464
        ]
      }
    },
    {
      "type": "Feature",
      "properties": {
        "Water System Name": "BRUNSVILLE MUNICIPAL WATER SUPPLY",
        "Population Served": 129,
        "City": "BRUNSVILLE"
      },
      "geometry": {
        "type": "Point",
        "coordinates": [
          -96.2692684,
          42.8097233
        ]
      }
    },
    {
      "type": "Feature",
      "properties": {
        "Water System Name": "BUFFALO CENTER MUNI WATER DEPT",
        "Population Served": 857,
        "City": "BUFFALO CENTER"
      },
      "geometry": {
        "type": "Point",
        "coordinates": [
          -93.9463511,
          43.3870462
        ]
      }
    },
    {
      "type": "Feature",
      "properties": {
        "Water System Name": "BUFFALO WATER SUPPLY",
        "Population Served": 1176,
        "City": "BUFFALO"
      },
      "geometry": {
        "type": "Point",
        "coordinates": [
          -90.7171608,
          41.4580146
        ]
      }
    },
    {
      "type": "Feature",
      "properties": {
        "Water System Name": "BURDS GREEN ACRES SUBDIVISION",
        "Population Served": 312,
        "City": "PEOSTA"
      },
      "geometry": {
        "type": "Point",
        "coordinates": [
          -90.8433797,
          42.4469535
        ]
      }
    },
    {
      "type": "Feature",
      "properties": {
        "Water System Name": "BURLINGTON MUNICIPAL WATERWORKS",
        "Population Served": 26015,
        "City": "BURLINGTON"
      },
      "geometry": {
        "type": "Point",
        "coordinates": [
          -91.1020205,
          40.8126922
        ]
      }
    },
    {
      "type": "Feature",
      "properties": {
        "Water System Name": "BURT WATER SUPPLY",
        "Population Served": 418,
        "City": "BURT"
      },
      "geometry": {
        "type": "Point",
        "coordinates": [
          -94.2196804,
          43.197621
        ]
      }
    },
    {
      "type": "Feature",
      "properties": {
        "Water System Name": "BUSSEY WATER SUPPLY",
        "Population Served": 427,
        "City": "BUSSEY"
      },
      "geometry": {
        "type": "Point",
        "coordinates": [
          -92.8867896,
          41.2045647
        ]
      }
    },
    {
      "type": "Feature",
      "properties": {
        "Water System Name": "CALAMUS WATER SUPPLY",
        "Population Served": 356,
        "City": "CALAMUS"
      },
      "geometry": {
        "type": "Point",
        "coordinates": [
          -90.758932,
          41.8257484
        ]
      }
    },
    {
      "type": "Feature",
      "properties": {
        "Water System Name": "CALLENDER WATER SUPPLY",
        "Population Served": 371,
        "City": "CALLENDER"
      },
      "geometry": {
        "type": "Point",
        "coordinates": [
          -94.292882,
          42.3617395
        ]
      }
    },
    {
      "type": "Feature",
      "properties": {
        "Water System Name": "CALMAR WATER SUPPLY",
        "Population Served": 1125,
        "City": "CALMAR"
      },
      "geometry": {
        "type": "Point",
        "coordinates": [
          -91.86481,
          43.1828024
        ]
      }
    },
    {
      "type": "Feature",
      "properties": {
        "Water System Name": "CALUMET WATER SUPPLY",
        "Population Served": 146,
        "City": "CALUMET"
      },
      "geometry": {
        "type": "Point",
        "coordinates": [
          -95.5502103,
          42.9463128
        ]
      }
    },
    {
      "type": "Feature",
      "properties": {
        "Water System Name": "CAMANCHE WATER SUPPLY",
        "Population Served": 4570,
        "City": "CAMANCHE"
      },
      "geometry": {
        "type": "Point",
        "coordinates": [
          -90.2562398,
          41.7880862
        ]
      }
    },
    {
      "type": "Feature",
      "properties": {
        "Water System Name": "CAMBRIDGE WATER SUPPLY",
        "Population Served": 832,
        "City": "CAMBRIDGE"
      },
      "geometry": {
        "type": "Point",
        "coordinates": [
          -93.5294029,
          41.8990768
        ]
      }
    },
    {
      "type": "Feature",
      "properties": {
        "Water System Name": "CAMP DODGE WATER SUPPLY",
        "Population Served": 1169,
        "City": "JOHNSTON"
      },
      "geometry": {
        "type": "Point",
        "coordinates": [
          -93.6973395,
          41.6731523
        ]
      }
    },
    {
      "type": "Feature",
      "properties": {
        "Water System Name": "CANTRIL WATER SUPPLY",
        "Population Served": 224,
        "City": "CANTRIL"
      },
      "geometry": {
        "type": "Point",
        "coordinates": [
          -92.0697401,
          40.6451319
        ]
      }
    },
    {
      "type": "Feature",
      "properties": {
        "Water System Name": "CARDINAL VALLEY ESTATES 3RD ADDITION",
        "Population Served": 25,
        "City": "DE WITT"
      },
      "geometry": {
        "type": "Point",
        "coordinates": [
          -90.5382696,
          41.8236361
        ]
      }
    },
    {
      "type": "Feature",
      "properties": {
        "Water System Name": "CARLISLE WATER SUPPLY",
        "Population Served": 4160,
        "City": "CARLISLE"
      },
      "geometry": {
        "type": "Point",
        "coordinates": [
          -93.4867511,
          41.4986831
        ]
      }
    },
    {
      "type": "Feature",
      "properties": {
        "Water System Name": "CARLTON MOBILE HOME COURT",
        "Population Served": 85,
        "City": "SPRINGVILLE"
      },
      "geometry": {
        "type": "Point",
        "coordinates": [
          -91.4433793,
          42.0602077
        ]
      }
    },
    {
      "type": "Feature",
      "properties": {
        "Water System Name": "CARRIAGE MEADOWS HOMEOWNERS ASSOCIATION",
        "Population Served": 80,
        "City": "BETTENDORF"
      },
      "geometry": {
        "type": "Point",
        "coordinates": [
          -90.5098639,
          41.5253792
        ]
      }
    },
    {
      "type": "Feature",
      "properties": {
        "Water System Name": "CARRIAGE PLACE ESTATES HOA",
        "Population Served": 125,
        "City": "BETTENDORF"
      },
      "geometry": {
        "type": "Point",
        "coordinates": [
          -90.5098639,
          41.5253792
        ]
      }
    },
    {
      "type": "Feature",
      "properties": {
        "Water System Name": "CARROLL MUNICIPAL WATER SUPPLY",
        "Population Served": 10184,
        "City": "CARROLL"
      },
      "geometry": {
        "type": "Point",
        "coordinates": [
          -94.8666108,
          42.0651109
        ]
      }
    },
    {
      "type": "Feature",
      "properties": {
        "Water System Name": "CARSON WATER SUPPLY",
        "Population Served": 766,
        "City": "CARSON"
      },
      "geometry": {
        "type": "Point",
        "coordinates": [
          -95.4212061,
          41.2364972
        ]
      }
    },
    {
      "type": "Feature",
      "properties": {
        "Water System Name": "CARTER LAKE WATER DISTRICT",
        "Population Served": 3796,
        "City": "CARTER LAKE"
      },
      "geometry": {
        "type": "Point",
        "coordinates": [
          -95.917157,
          41.2851284
        ]
      }
    },
    {
      "type": "Feature",
      "properties": {
        "Water System Name": "CASCADE MUNICIPAL WATER SUPPLY",
        "Population Served": 2386,
        "City": "CASCADE"
      },
      "geometry": {
        "type": "Point",
        "coordinates": [
          -91.0142226,
          42.2984881
        ]
      }
    },
    {
      "type": "Feature",
      "properties": {
        "Water System Name": "CASEY WATER SUPPLY",
        "Population Served": 387,
        "City": "CASEY"
      },
      "geometry": {
        "type": "Point",
        "coordinates": [
          -94.5193809,
          41.5051917
        ]
      }
    },
    {
      "type": "Feature",
      "properties": {
        "Water System Name": "CASTALIA WATER WORKS",
        "Population Served": 145,
        "City": "CASTALIA"
      },
      "geometry": {
        "type": "Point",
        "coordinates": [
          -91.6764623,
          43.1121115
        ]
      }
    },
    {
      "type": "Feature",
      "properties": {
        "Water System Name": "CASTANA MUNICIPAL WATER SUPPLY",
        "Population Served": 103,
        "City": "CASTANA"
      },
      "geometry": {
        "type": "Point",
        "coordinates": [
          -95.9086349,
          42.0744054
        ]
      }
    },
    {
      "type": "Feature",
      "properties": {
        "Water System Name": "CEDAR FALLS MOBILE HOME VILLAGE",
        "Population Served": 388,
        "City": "CEDAR FALLS"
      },
      "geometry": {
        "type": "Point",
        "coordinates": [
          -92.447758,
          42.5361805
        ]
      }
    },
    {
      "type": "Feature",
      "properties": {
        "Water System Name": "CEDAR FALLS MUNICIPAL WATER UTILITIES",
        "Population Served": 40713,
        "City": "CEDAR FALLS"
      },
      "geometry": {
        "type": "Point",
        "coordinates": [
          -92.447758,
          42.5361805
        ]
      }
    },
    {
      "type": "Feature",
      "properties": {
        "Water System Name": "CEDAR RAPIDS WATER DEPARTMENT",
        "Population Served": 141831,
        "City": "CEDAR RAPIDS"
      },
      "geometry": {
        "type": "Point",
        "coordinates": [
          -91.6704053,
          41.9758872
        ]
      }
    },
    {
      "type": "Feature",
      "properties": {
        "Water System Name": "CEDAR TERRACE MHC",
        "Population Served": 600,
        "City": "CEDAR RAPIDS"
      },
      "geometry": {
        "type": "Point",
        "coordinates": [
          -91.6704053,
          41.9758872
        ]
      }
    },
    {
      "type": "Feature",
      "properties": {
        "Water System Name": "CENTER JUNCTION (EIRUSS)",
        "Population Served": 100,
        "City": "CENTER JUNCTION"
      },
      "geometry": {
        "type": "Point",
        "coordinates": [
          -91.087094,
          42.1161202
        ]
      }
    },
    {
      "type": "Feature",
      "properties": {
        "Water System Name": "CENTER POINT WATER SUPPLY",
        "Population Served": 2579,
        "City": "CENTER POINT"
      },
      "geometry": {
        "type": "Point",
        "coordinates": [
          -91.7851772,
          42.1908265
        ]
      }
    },
    {
      "type": "Feature",
      "properties": {
        "Water System Name": "CENTERVILLE MUNICIPAL WATERWORKS",
        "Population Served": 5600,
        "City": "CENTERVILLE"
      },
      "geometry": {
        "type": "Point",
        "coordinates": [
          -92.8742102,
          40.7344306
        ]
      }
    },
    {
      "type": "Feature",
      "properties": {
        "Water System Name": "CENTRAL CITY WATER SUPPLY",
        "Population Served": 1264,
        "City": "CENTRAL CITY"
      },
      "geometry": {
        "type": "Point",
        "coordinates": [
          -91.5243615,
          42.2039609
        ]
      }
    },
    {
      "type": "Feature",
      "properties": {
        "Water System Name": "CENTRAL WATER SYSTEM",
        "Population Served": 25,
        "City": "OKOBOJI"
      },
      "geometry": {
        "type": "Point",
        "coordinates": [
          -95.1487375,
          43.3858803
        ]
      }
    },
    {
      "type": "Feature",
      "properties": {
        "Water System Name": "CENTRAL WATER WORKS",
        "Population Served": 27,
        "City": "FORT DODGE"
      },
      "geometry": {
        "type": "Point",
        "coordinates": [
          -94.1910044,
          42.5044017
        ]
      }
    },
    {
      "type": "Feature",
      "properties": {
        "Water System Name": "CHAIN RIDGE SUBDIVISION",
        "Population Served": 25,
        "City": "SOLON"
      },
      "geometry": {
        "type": "Point",
        "coordinates": [
          -91.4940604,
          41.8072344
        ]
      }
    },
    {
      "type": "Feature",
      "properties": {
        "Water System Name": "CHARITON MUNICIPAL WATER WORKS",
        "Population Served": 4568,
        "City": "CHARITON"
      },
      "geometry": {
        "type": "Point",
        "coordinates": [
          -93.3074102,
          41.0147155
        ]
      }
    },
    {
      "type": "Feature",
      "properties": {
        "Water System Name": "CHARLES CITY WATER SUPPLY",
        "Population Served": 7448,
        "City": "CHARLES CITY"
      },
      "geometry": {
        "type": "Point",
        "coordinates": [
          -92.6794258,
          43.0662177
        ]
      }
    },
    {
      "type": "Feature",
      "properties": {
        "Water System Name": "CHARLOTTE WATER WORKS",
        "Population Served": 389,
        "City": "CHARLOTTE"
      },
      "geometry": {
        "type": "Point",
        "coordinates": [
          -90.4688634,
          41.9604757
        ]
      }
    },
    {
      "type": "Feature",
      "properties": {
        "Water System Name": "CHARTER OAK WATER SUPPLY",
        "Population Served": 522,
        "City": "CHARTER OAK"
      },
      "geometry": {
        "type": "Point",
        "coordinates": [
          -95.5913274,
          42.0695378
        ]
      }
    },
    {
      "type": "Feature",
      "properties": {
        "Water System Name": "CHASE MOBILE HOME PARK",
        "Population Served": 85,
        "City": "IOWA FALLS"
      },
      "geometry": {
        "type": "Point",
        "coordinates": [
          -93.2647595,
          42.5207924
        ]
      }
    },
    {
      "type": "Feature",
      "properties": {
        "Water System Name": "CHELSEA WATER SUPPLY",
        "Population Served": 229,
        "City": "CHELSEA"
      },
      "geometry": {
        "type": "Point",
        "coordinates": [
          -92.3942415,
          41.9187423
        ]
      }
    },
    {
      "type": "Feature",
      "properties": {
        "Water System Name": "CHEROKEE RWS - CHEROKEE SUBSYSTEM",
        "Population Served": 3315,
        "City": "CHEROKEE"
      },
      "geometry": {
        "type": "Point",
        "coordinates": [
          -95.5548229,
          42.7499398
        ]
      }
    },
    {
      "type": "Feature",
      "properties": {
        "Water System Name": "CHEROKEE RWS- MILL CREEK SUBSYSTEM",
        "Population Served": 1451,
        "City": "CHEROKEE"
      },
      "geometry": {
        "type": "Point",
        "coordinates": [
          -95.5548229,
          42.7499398
        ]
      }
    },
    {
      "type": "Feature",
      "properties": {
        "Water System Name": "CHEROKEE WATER SUPPLY - PLANT 1",
        "Population Served": 5199,
        "City": "CHEROKEE"
      },
      "geometry": {
        "type": "Point",
        "coordinates": [
          -95.5548229,
          42.7499398
        ]
      }
    },
    {
      "type": "Feature",
      "properties": {
        "Water System Name": "CHERRY HILLS SUBDIVISION",
        "Population Served": 59,
        "City": "IOWA CITY"
      },
      "geometry": {
        "type": "Point",
        "coordinates": [
          -91.5299106,
          41.6612561
        ]
      }
    },
    {
      "type": "Feature",
      "properties": {
        "Water System Name": "CHESTER WATER SUPPLY",
        "Population Served": 139,
        "City": "CHESTER"
      },
      "geometry": {
        "type": "Point",
        "coordinates": [
          -92.360449,
          43.4910768
        ]
      }
    },
    {
      "type": "Feature",
      "properties": {
        "Water System Name": "CHESTNUT RIDGE",
        "Population Served": 33,
        "City": "CEDAR RAPIDS"
      },
      "geometry": {
        "type": "Point",
        "coordinates": [
          -91.6704053,
          41.9758872
        ]
      }
    },
    {
      "type": "Feature",
      "properties": {
        "Water System Name": "CHURDAN WATER SUPPLY",
        "Population Served": 375,
        "City": "CHURDAN"
      },
      "geometry": {
        "type": "Point",
        "coordinates": [
          -94.4774021,
          42.1553635
        ]
      }
    },
    {
      "type": "Feature",
      "properties": {
        "Water System Name": "CINCINNATI MUNICIPAL WATER CO",
        "Population Served": 290,
        "City": "CINCINNATI"
      },
      "geometry": {
        "type": "Point",
        "coordinates": [
          -92.924648,
          40.6308548
        ]
      }
    },
    {
      "type": "Feature",
      "properties": {
        "Water System Name": "CITY OF KALONA - SOUTHTOWN",
        "Population Served": 60,
        "City": "KALONA"
      },
      "geometry": {
        "type": "Point",
        "coordinates": [
          -91.7061856,
          41.483118
        ]
      }
    },
    {
      "type": "Feature",
      "properties": {
        "Water System Name": "CLARENCE WATER SUPPLY",
        "Population Served": 1039,
        "City": "CLARENCE"
      },
      "geometry": {
        "type": "Point",
        "coordinates": [
          -91.0558524,
          41.8881899
        ]
      }
    },
    {
      "type": "Feature",
      "properties": {
        "Water System Name": "CLARE WATER DEPARTMENT",
        "Population Served": 136,
        "City": "CLARE"
      },
      "geometry": {
        "type": "Point",
        "coordinates": [
          -94.3444824,
          42.5872478
        ]
      }
    },
    {
      "type": "Feature",
      "properties": {
        "Water System Name": "CLARINDA TREATMENT COMPLEX",
        "Population Served": 1439,
        "City": "CLARINDA"
      },
      "geometry": {
        "type": "Point",
        "coordinates": [
          -95.0371027,
          40.7389796
        ]
      }
    },
    {
      "type": "Feature",
      "properties": {
        "Water System Name": "CLARINDA WATER PLANT",
        "Population Served": 4372,
        "City": "CLARINDA"
      },
      "geometry": {
        "type": "Point",
        "coordinates": [
          -95.0371027,
          40.7389796
        ]
      }
    },
    {
      "type": "Feature",
      "properties": {
        "Water System Name": "CLARION WATER SUPPLY",
        "Population Served": 2810,
        "City": "CLARION"
      },
      "geometry": {
        "type": "Point",
        "coordinates": [
          -93.7321871,
          42.7317899
        ]
      }
    },
    {
      "type": "Feature",
      "properties": {
        "Water System Name": "CLARKSVILLE WATER SUPPLY",
        "Population Served": 1254,
        "City": "CLARKSVILLE"
      },
      "geometry": {
        "type": "Point",
        "coordinates": [
          -92.6679762,
          42.7845552
        ]
      }
    },
    {
      "type": "Feature",
      "properties": {
        "Water System Name": "CLAYTON WATER SUPPLY",
        "Population Served": 45,
        "City": "CLAYTON"
      },
      "geometry": {
        "type": "Point",
        "coordinates": [
          -91.1473518,
          42.9038759
        ]
      }
    },
    {
      "type": "Feature",
      "properties": {
        "Water System Name": "CLEAR LAKE WATER DEPARTMENT",
        "Population Served": 7777,
        "City": "CLEAR LAKE"
      },
      "geometry": {
        "type": "Point",
        "coordinates": [
          -93.3813637,
          43.1370751
        ]
      }
    },
    {
      "type": "Feature",
      "properties": {
        "Water System Name": "CLEGHORN WATER SUPPLY",
        "Population Served": 240,
        "City": "CLEGHORN"
      },
      "geometry": {
        "type": "Point",
        "coordinates": [
          -95.7127177,
          42.8122463
        ]
      }
    },
    {
      "type": "Feature",
      "properties": {
        "Water System Name": "CLEMONS WATER SUPPLY",
        "Population Served": 140,
        "City": "CLEMONS"
      },
      "geometry": {
        "type": "Point",
        "coordinates": [
          -93.1577317,
          42.1138357
        ]
      }
    },
    {
      "type": "Feature",
      "properties": {
        "Water System Name": "CLERMONT WATER SUPPLY",
        "Population Served": 586,
        "City": "CLERMONT"
      },
      "geometry": {
        "type": "Point",
        "coordinates": [
          -91.6533253,
          43.0014743
        ]
      }
    },
    {
      "type": "Feature",
      "properties": {
        "Water System Name": "CLIVE WATER DEPARTMENT",
        "Population Served": 18601,
        "City": "CLIVE"
      },
      "geometry": {
        "type": "Point",
        "coordinates": [
          -93.7754644,
          41.6096559
        ]
      }
    },
    {
      "type": "Feature",
      "properties": {
        "Water System Name": "CLOVER RIDGE SUBDIVISION",
        "Population Served": 413,
        "City": "WALFORD"
      },
      "geometry": {
        "type": "Point",
        "coordinates": [
          -91.8349115,
          41.8782317
        ]
      }
    },
    {
      "type": "Feature",
      "properties": {
        "Water System Name": "CLUTIER WATER SUPPLY",
        "Population Served": 213,
        "City": "CLUTIER"
      },
      "geometry": {
        "type": "Point",
        "coordinates": [
          -92.4037311,
          42.0791167
        ]
      }
    },
    {
      "type": "Feature",
      "properties": {
        "Water System Name": "COACH ROAD WELL ASSOCIATION",
        "Population Served": 60,
        "City": "LISBON"
      },
      "geometry": {
        "type": "Point",
        "coordinates": [
          -91.3854913,
          41.9211165
        ]
      }
    },
    {
      "type": "Feature",
      "properties": {
        "Water System Name": "COAL VALLEY WATER DISTRICT",
        "Population Served": 240,
        "City": "BOONE"
      },
      "geometry": {
        "type": "Point",
        "coordinates": [
          -93.8802202,
          42.0596994
        ]
      }
    },
    {
      "type": "Feature",
      "properties": {
        "Water System Name": "COGGON WATER DEPARTMENT",
        "Population Served": 701,
        "City": "COGGON"
      },
      "geometry": {
        "type": "Point",
        "coordinates": [
          -91.5305979,
          42.2809574
        ]
      }
    },
    {
      "type": "Feature",
      "properties": {
        "Water System Name": "COIN WATER SUPPLY",
        "Population Served": 176,
        "City": "COIN"
      },
      "geometry": {
        "type": "Point",
        "coordinates": [
          -95.2324091,
          40.6556495
        ]
      }
    },
    {
      "type": "Feature",
      "properties": {
        "Water System Name": "COLESBURG WATER SUPPLY",
        "Population Served": 386,
        "City": "COLESBURG"
      },
      "geometry": {
        "type": "Point",
        "coordinates": [
          -91.2020806,
          42.6395575
        ]
      }
    },
    {
      "type": "Feature",
      "properties": {
        "Water System Name": "COLFAX WATER SUPPLY",
        "Population Served": 2305,
        "City": "COLFAX"
      },
      "geometry": {
        "type": "Point",
        "coordinates": [
          -93.2452335,
          41.6777241
        ]
      }
    },
    {
      "type": "Feature",
      "properties": {
        "Water System Name": "COLLINS WATER SUPPLY",
        "Population Served": 505,
        "City": "COLLINS"
      },
      "geometry": {
        "type": "Point",
        "coordinates": [
          -93.3063381,
          41.9028032
        ]
      }
    },
    {
      "type": "Feature",
      "properties": {
        "Water System Name": "COLO WATER SUPPLY",
        "Population Served": 845,
        "City": "COLO"
      },
      "geometry": {
        "type": "Point",
        "coordinates": [
          -93.3153099,
          42.0186361
        ]
      }
    },
    {
      "type": "Feature",
      "properties": {
        "Water System Name": "COLUMBUS CITY PUBLIC WATER SUPPLY",
        "Population Served": 392,
        "City": "COLUMBUS CITY"
      },
      "geometry": {
        "type": "Point",
        "coordinates": [
          -91.3749379,
          41.2586576
        ]
      }
    },
    {
      "type": "Feature",
      "properties": {
        "Water System Name": "COLUMBUS JUNCTION WATER SUPPLY",
        "Population Served": 1830,
        "City": "COLUMBUS JUNCTION"
      },
      "geometry": {
        "type": "Point",
        "coordinates": [
          -91.3613798,
          41.2791892
        ]
      }
    },
    {
      "type": "Feature",
      "properties": {
        "Water System Name": "COLWELL, CITY OF",
        "Population Served": 55,
        "City": "COLWELL"
      },
      "geometry": {
        "type": "Point",
        "coordinates": [
          -92.5938766,
          43.1560076
        ]
      }
    },
    {
      "type": "Feature",
      "properties": {
        "Water System Name": "CONRAD WATER SUPPLY",
        "Population Served": 1098,
        "City": "CONRAD"
      },
      "geometry": {
        "type": "Point",
        "coordinates": [
          -92.8742749,
          42.2247216
        ]
      }
    },
    {
      "type": "Feature",
      "properties": {
        "Water System Name": "COON RAPIDS MUNICIPAL UTILITIES",
        "Population Served": 1300,
        "City": "COON RAPIDS"
      },
      "geometry": {
        "type": "Point",
        "coordinates": [
          -94.6781764,
          41.8708561
        ]
      }
    },
    {
      "type": "Feature",
      "properties": {
        "Water System Name": "CORALVILLE LAKE MANOR",
        "Population Served": 170,
        "City": "SOLON"
      },
      "geometry": {
        "type": "Point",
        "coordinates": [
          -91.4940604,
          41.8072344
        ]
      }
    },
    {
      "type": "Feature",
      "properties": {
        "Water System Name": "CORALVILLE LAKE TERRACE",
        "Population Served": 340,
        "City": "NORTH LIBERTY"
      },
      "geometry": {
        "type": "Point",
        "coordinates": [
          -91.6064397,
          41.7478297
        ]
      }
    },
    {
      "type": "Feature",
      "properties": {
        "Water System Name": "CORALVILLE MUNI WATER SYSTEM",
        "Population Served": 22318,
        "City": "CORALVILLE"
      },
      "geometry": {
        "type": "Point",
        "coordinates": [
          -91.580705,
          41.6759977
        ]
      }
    },
    {
      "type": "Feature",
      "properties": {
        "Water System Name": "CORNING MUNI WATER DEPARTMENT",
        "Population Served": 1735,
        "City": "CORNING"
      },
      "geometry": {
        "type": "Point",
        "coordinates": [
          -94.7347831,
          40.9901625
        ]
      }
    },
    {
      "type": "Feature",
      "properties": {
        "Water System Name": "CORRECTIONVILLE WATER SUPPLY",
        "Population Served": 766,
        "City": "CORRECTIONVILLE"
      },
      "geometry": {
        "type": "Point",
        "coordinates": [
          -95.785565,
          42.4749887
        ]
      }
    },
    {
      "type": "Feature",
      "properties": {
        "Water System Name": "CORRIDOR RIDGE SUBDIVISION",
        "Population Served": 108,
        "City": "SHUEYVILLE"
      },
      "geometry": {
        "type": "Point",
        "coordinates": [
          -91.6488382,
          41.8481169
        ]
      }
    },
    {
      "type": "Feature",
      "properties": {
        "Water System Name": "CORWITH WATER SUPPLY",
        "Population Served": 266,
        "City": "CORWITH"
      },
      "geometry": {
        "type": "Point",
        "coordinates": [
          -93.9573642,
          42.9929191
        ]
      }
    },
    {
      "type": "Feature",
      "properties": {
        "Water System Name": "CORYDON WATER SUPPLY",
        "Population Served": 1526,
        "City": "CORYDON"
      },
      "geometry": {
        "type": "Point",
        "coordinates": [
          -93.3182112,
          40.7576063
        ]
      }
    },
    {
      "type": "Feature",
      "properties": {
        "Water System Name": "COTTAGE RESERVE CORPORATION",
        "Population Served": 198,
        "City": "IOWA CITY"
      },
      "geometry": {
        "type": "Point",
        "coordinates": [
          -91.5299106,
          41.6612561
        ]
      }
    },
    {
      "type": "Feature",
      "properties": {
        "Water System Name": "COULTER WATER SUPPLY",
        "Population Served": 219,
        "City": "COULTER"
      },
      "geometry": {
        "type": "Point",
        "coordinates": [
          -93.3698315,
          42.7368707
        ]
      }
    },
    {
      "type": "Feature",
      "properties": {
        "Water System Name": "COUNCIL BLUFFS WATER WORKS",
        "Population Served": 64447,
        "City": "COUNCIL BLUFFS"
      },
      "geometry": {
        "type": "Point",
        "coordinates": [
          -95.8519484,
          41.258841
        ]
      }
    },
    {
      "type": "Feature",
      "properties": {
        "Water System Name": "COUNTRY ESTATES MHP",
        "Population Served": 150,
        "City": "LONG GROVE"
      },
      "geometry": {
        "type": "Point",
        "coordinates": [
          -90.5833465,
          41.6981153
        ]
      }
    },
    {
      "type": "Feature",
      "properties": {
        "Water System Name": "COUNTRY ESTATES MOBILE HOME PARK",
        "Population Served": 35,
        "City": "COUNCIL BLUFFS"
      },
      "geometry": {
        "type": "Point",
        "coordinates": [
          -95.8519484,
          41.258841
        ]
      }
    },
    {
      "type": "Feature",
      "properties": {
        "Water System Name": "COUNTRY HILLS WATER CORP",
        "Population Served": 31,
        "City": "CENTRALIA"
      },
      "geometry": {
        "type": "Point",
        "coordinates": [
          -90.8363174,
          42.4725551
        ]
      }
    },
    {
      "type": "Feature",
      "properties": {
        "Water System Name": "COUNTRY MANOR ESTATES",
        "Population Served": 228,
        "City": "HIAWATHA"
      },
      "geometry": {
        "type": "Point",
        "coordinates": [
          -91.6737592,
          42.0385304
        ]
      }
    },
    {
      "type": "Feature",
      "properties": {
        "Water System Name": "COUNTRY VIEW SUBDIVISION HOA",
        "Population Served": 55,
        "City": "KALONA"
      },
      "geometry": {
        "type": "Point",
        "coordinates": [
          -91.7061856,
          41.483118
        ]
      }
    },
    {
      "type": "Feature",
      "properties": {
        "Water System Name": "CRAIG WATER WORKS",
        "Population Served": 79,
        "City": "CRAIG"
      },
      "geometry": {
        "type": "Point",
        "coordinates": [
          -96.3095419,
          42.8958121
        ]
      }
    },
    {
      "type": "Feature",
      "properties": {
        "Water System Name": "CRAWFORDSVILLE WATER SUPPLY",
        "Population Served": 277,
        "City": "CRAWFORDSVILLE"
      },
      "geometry": {
        "type": "Point",
        "coordinates": [
          -91.5388496,
          41.2147149
        ]
      }
    },
    {
      "type": "Feature",
      "properties": {
        "Water System Name": "CRESCENT WATER SUPPLY",
        "Population Served": 778,
        "City": "CRESCENT"
      },
      "geometry": {
        "type": "Point",
        "coordinates": [
          -95.858422,
          41.3650699
        ]
      }
    },
    {
      "type": "Feature",
      "properties": {
        "Water System Name": "CRESCO WATERWORKS",
        "Population Served": 3913,
        "City": "CRESCO"
      },
      "geometry": {
        "type": "Point",
        "coordinates": [
          -92.1161444,
          43.3736148
        ]
      }
    },
    {
      "type": "Feature",
      "properties": {
        "Water System Name": "CRESTON WATER SUPPLY",
        "Population Served": 7536,
        "City": "CRESTON"
      },
      "geometry": {
        "type": "Point",
        "coordinates": [
          -94.361397,
          41.0585878
        ]
      }
    },
    {
      "type": "Feature",
      "properties": {
        "Water System Name": "CRESTWOOD ACRES",
        "Population Served": 50,
        "City": "CEDAR RAPIDS"
      },
      "geometry": {
        "type": "Point",
        "coordinates": [
          -91.6704053,
          41.9758872
        ]
      }
    },
    {
      "type": "Feature",
      "properties": {
        "Water System Name": "CRYSTAL LAKE WATER SUPPLY",
        "Population Served": 255,
        "City": "CRYSTAL LAKE"
      },
      "geometry": {
        "type": "Point",
        "coordinates": [
          -93.791663,
          43.2232375
        ]
      }
    },
    {
      "type": "Feature",
      "properties": {
        "Water System Name": "CUMBERLAND RIDGE FIRST ADDITION",
        "Population Served": 55,
        "City": "NORTH LIBERTY"
      },
      "geometry": {
        "type": "Point",
        "coordinates": [
          -91.6064397,
          41.7478297
        ]
      }
    },
    {
      "type": "Feature",
      "properties": {
        "Water System Name": "CUMBERLAND WATER SUPPLY",
        "Population Served": 256,
        "City": "CUMBERLAND"
      },
      "geometry": {
        "type": "Point",
        "coordinates": [
          -94.8703338,
          41.2730307
        ]
      }
    },
    {
      "type": "Feature",
      "properties": {
        "Water System Name": "CUSHING WATER SUPPLY",
        "Population Served": 230,
        "City": "CUSHING"
      },
      "geometry": {
        "type": "Point",
        "coordinates": [
          -95.6751047,
          42.46576
        ]
      }
    },
    {
      "type": "Feature",
      "properties": {
        "Water System Name": "DAKOTA CITY WATER SUPPLY",
        "Population Served": 769,
        "City": "DAKOTA CITY"
      },
      "geometry": {
        "type": "Point",
        "coordinates": [
          -94.2013744,
          42.7212439
        ]
      }
    },
    {
      "type": "Feature",
      "properties": {
        "Water System Name": "DALLAS CENTER WATER SUPPLY",
        "Population Served": 1901,
        "City": "DALLAS CENTER"
      },
      "geometry": {
        "type": "Point",
        "coordinates": [
          -93.9622388,
          41.6844045
        ]
      }
    },
    {
      "type": "Feature",
      "properties": {
        "Water System Name": "DANBURY WATER SUPPLY",
        "Population Served": 320,
        "City": "DANBURY"
      },
      "geometry": {
        "type": "Point",
        "coordinates": [
          -95.7222265,
          42.2341562
        ]
      }
    },
    {
      "type": "Feature",
      "properties": {
        "Water System Name": "DANVILLE WATER SUPPLY",
        "Population Served": 974,
        "City": "DANVILLE"
      },
      "geometry": {
        "type": "Point",
        "coordinates": [
          -91.314942,
          40.865624
        ]
      }
    },
    {
      "type": "Feature",
      "properties": {
        "Water System Name": "DAWSON WATER WORKS",
        "Population Served": 116,
        "City": "DAWSON"
      },
      "geometry": {
        "type": "Point",
        "coordinates": [
          -94.2218763,
          41.8436976
        ]
      }
    },
    {
      "type": "Feature",
      "properties": {
        "Water System Name": "DAYTON MUNICIPAL WATER SUPPLY",
        "Population Served": 772,
        "City": "DAYTON"
      },
      "geometry": {
        "type": "Point",
        "coordinates": [
          -94.0685672,
          42.2613645
        ]
      }
    },
    {
      "type": "Feature",
      "properties": {
        "Water System Name": "DECORAH WATER DEPARTMENT",
        "Population Served": 7615,
        "City": "DECORAH"
      },
      "geometry": {
        "type": "Point",
        "coordinates": [
          -91.7859098,
          43.3041609
        ]
      }
    },
    {
      "type": "Feature",
      "properties": {
        "Water System Name": "DEDHAM WATER SUPPLY",
        "Population Served": 224,
        "City": "DEDHAM"
      },
      "geometry": {
        "type": "Point",
        "coordinates": [
          -94.8222082,
          41.9063152
        ]
      }
    },
    {
      "type": "Feature",
      "properties": {
        "Water System Name": "DEEP RIVER WATER SUPPLY",
        "Population Served": 249,
        "City": "DEEP RIVER"
      },
      "geometry": {
        "type": "Point",
        "coordinates": [
          -92.3749066,
          41.5802811
        ]
      }
    },
    {
      "type": "Feature",
      "properties": {
        "Water System Name": "DEER CREEK SUBDIVISION (FORT DODGE)",
        "Population Served": 55,
        "City": "FORT DODGE"
      },
      "geometry": {
        "type": "Point",
        "coordinates": [
          -94.1910044,
          42.5044017
        ]
      }
    },
    {
      "type": "Feature",
      "properties": {
        "Water System Name": "DEERFIELD HEIGHTS ASSOCIATION",
        "Population Served": 28,
        "City": "DECORAH"
      },
      "geometry": {
        "type": "Point",
        "coordinates": [
          -91.7859098,
          43.3041609
        ]
      }
    },
    {
      "type": "Feature",
      "properties": {
        "Water System Name": "DEER HUNTERS RUN",
        "Population Served": 78,
        "City": "VAN METER"
      },
      "geometry": {
        "type": "Point",
        "coordinates": [
          -93.9548406,
          41.5332166
        ]
      }
    },
    {
      "type": "Feature",
      "properties": {
        "Water System Name": "DEER RIDGE HOMEOWNERS WATER ASSC.",
        "Population Served": 94,
        "City": "PALO"
      },
      "geometry": {
        "type": "Point",
        "coordinates": [
          -91.7963843,
          42.0660787
        ]
      }
    },
    {
      "type": "Feature",
      "properties": {
        "Water System Name": "DEER VALLEY HOMEOWNERS ASSOC",
        "Population Served": 44,
        "City": "BLUE GRASS"
      },
      "geometry": {
        "type": "Point",
        "coordinates": [
          -90.7659148,
          41.5097808
        ]
      }
    },
    {
      "type": "Feature",
      "properties": {
        "Water System Name": "DEERWOOD ESTATES UTILITIES",
        "Population Served": 175,
        "City": "FORT DODGE"
      },
      "geometry": {
        "type": "Point",
        "coordinates": [
          -94.1910044,
          42.5044017
        ]
      }
    },
    {
      "type": "Feature",
      "properties": {
        "Water System Name": "DEFIANCE WATER DEPARTMENT",
        "Population Served": 250,
        "City": "DEFIANCE"
      },
      "geometry": {
        "type": "Point",
        "coordinates": [
          -95.3413533,
          41.8240937
        ]
      }
    },
    {
      "type": "Feature",
      "properties": {
        "Water System Name": "DELAWARE MUNICIPAL WATER SUPPLY",
        "Population Served": 142,
        "City": "DELAWARE"
      },
      "geometry": {
        "type": "Point",
        "coordinates": [
          -91.3454214,
          42.4752682
        ]
      }
    },
    {
      "type": "Feature",
      "properties": {
        "Water System Name": "DELHI WATER SUPPLY",
        "Population Served": 420,
        "City": "DELHI"
      },
      "geometry": {
        "type": "Point",
        "coordinates": [
          -91.3309112,
          42.4297057
        ]
      }
    },
    {
      "type": "Feature",
      "properties": {
        "Water System Name": "DELMAR WATER SUPPLY",
        "Population Served": 542,
        "City": "DELMAR"
      },
      "geometry": {
        "type": "Point",
        "coordinates": [
          -90.6071297,
          42.0022247
        ]
      }
    },
    {
      "type": "Feature",
      "properties": {
        "Water System Name": "DELOIT MUNI WATER SUPPLY",
        "Population Served": 250,
        "City": "DELOIT"
      },
      "geometry": {
        "type": "Point",
        "coordinates": [
          -95.3224967,
          42.0977651
        ]
      }
    },
    {
      "type": "Feature",
      "properties": {
        "Water System Name": "DELTA WATER SUPPLY",
        "Population Served": 264,
        "City": "DELTA"
      },
      "geometry": {
        "type": "Point",
        "coordinates": [
          -92.3301808,
          41.3226207
        ]
      }
    },
    {
      "type": "Feature",
      "properties": {
        "Water System Name": "DENISON WATER SUPPLY",
        "Population Served": 9186,
        "City": "DENISON"
      },
      "geometry": {
        "type": "Point",
        "coordinates": [
          -95.3553286,
          42.0177718
        ]
      }
    },
    {
      "type": "Feature",
      "properties": {
        "Water System Name": "DENVER WATER SUPPLY",
        "Population Served": 1919,
        "City": "DENVER"
      },
      "geometry": {
        "type": "Point",
        "coordinates": [
          -92.3372158,
          42.6713752
        ]
      }
    },
    {
      "type": "Feature",
      "properties": {
        "Water System Name": "DES MOINES WATER WORKS",
        "Population Served": 245123,
        "City": "DES MOINES"
      },
      "geometry": {
        "type": "Point",
        "coordinates": [
          -93.6249494,
          41.5868654
        ]
      }
    },
    {
      "type": "Feature",
      "properties": {
        "Water System Name": "DE SOTO WATER SUPPLY",
        "Population Served": 960,
        "City": "DE SOTO"
      },
      "geometry": {
        "type": "Point",
        "coordinates": [
          -94.0085214,
          41.5318591
        ]
      }
    },
    {
      "type": "Feature",
      "properties": {
        "Water System Name": "DEVILS CREEK ESTATES HOME ASSOC",
        "Population Served": 145,
        "City": "BUFFALO"
      },
      "geometry": {
        "type": "Point",
        "coordinates": [
          -90.7171608,
          41.4580146
        ]
      }
    },
    {
      "type": "Feature",
      "properties": {
        "Water System Name": "DE WITT WATER SUPPLY",
        "Population Served": 5514,
        "City": "DE WITT"
      },
      "geometry": {
        "type": "Point",
        "coordinates": [
          -90.5382696,
          41.8236361
        ]
      }
    },
    {
      "type": "Feature",
      "properties": {
        "Water System Name": "DEXTER WATER SUPPLY",
        "Population Served": 693,
        "City": "DEXTER"
      },
      "geometry": {
        "type": "Point",
        "coordinates": [
          -94.2282377,
          41.5165588
        ]
      }
    },
    {
      "type": "Feature",
      "properties": {
        "Water System Name": "DIAGONAL WATER DEPARTMENT",
        "Population Served": 344,
        "City": "DIAGONAL"
      },
      "geometry": {
        "type": "Point",
        "coordinates": [
          -94.3422715,
          40.8094449
        ]
      }
    },
    {
      "type": "Feature",
      "properties": {
        "Water System Name": "DICKENS WATER WORKS",
        "Population Served": 151,
        "City": "SPENCER"
      },
      "geometry": {
        "type": "Point",
        "coordinates": [
          -95.1477536,
          43.1415519
        ]
      }
    },
    {
      "type": "Feature",
      "properties": {
        "Water System Name": "DIKE WATER SUPPLY",
        "Population Served": 1306,
        "City": "DIKE"
      },
      "geometry": {
        "type": "Point",
        "coordinates": [
          -92.6282724,
          42.4640851
        ]
      }
    },
    {
      "type": "Feature",
      "properties": {
        "Water System Name": "DMWW-GREENBRIER ESTATES",
        "Population Served": 300,
        "City": "CUMMING"
      },
      "geometry": {
        "type": "Point",
        "coordinates": [
          -93.7624442,
          41.4833235
        ]
      }
    },
    {
      "type": "Feature",
      "properties": {
        "Water System Name": "DODDS VALLEY VIEW WATER ASSN",
        "Population Served": 220,
        "City": "BETTENDORF"
      },
      "geometry": {
        "type": "Point",
        "coordinates": [
          -90.5098639,
          41.5253792
        ]
      }
    },
    {
      "type": "Feature",
      "properties": {
        "Water System Name": "DOLLIVER MUNI WATER SUPPLY",
        "Population Served": 65,
        "City": "DOLLIVER"
      },
      "geometry": {
        "type": "Point",
        "coordinates": [
          -94.6140245,
          43.4651583
        ]
      }
    },
    {
      "type": "Feature",
      "properties": {
        "Water System Name": "DONNELLSON MUNI WATER WORKS",
        "Population Served": 885,
        "City": "DONNELLSON"
      },
      "geometry": {
        "type": "Point",
        "coordinates": [
          -91.5646028,
          40.6428152
        ]
      }
    },
    {
      "type": "Feature",
      "properties": {
        "Water System Name": "DOON WATER SUPPLY",
        "Population Served": 619,
        "City": "DOON"
      },
      "geometry": {
        "type": "Point",
        "coordinates": [
          -96.2344049,
          43.279423
        ]
      }
    },
    {
      "type": "Feature",
      "properties": {
        "Water System Name": "DORELL DRIVE HOME OWNERS ASSOCIATION",
        "Population Served": 32,
        "City": "HAMPTON"
      },
      "geometry": {
        "type": "Point",
        "coordinates": [
          -93.2080861,
          42.7424776
        ]
      }
    },
    {
      "type": "Feature",
      "properties": {
        "Water System Name": "DOW CITY WATER WORKS",
        "Population Served": 485,
        "City": "DOW CITY"
      },
      "geometry": {
        "type": "Point",
        "coordinates": [
          -95.4960779,
          41.9288897
        ]
      }
    },
    {
      "type": "Feature",
      "properties": {
        "Water System Name": "DOWS WATER SUPPLY",
        "Population Served": 521,
        "City": "DOWS"
      },
      "geometry": {
        "type": "Point",
        "coordinates": [
          -93.5009286,
          42.6563906
        ]
      }
    },
    {
      "type": "Feature",
      "properties": {
        "Water System Name": "DUBUQUE WATER WORKS",
        "Population Served": 59667,
        "City": "DUBUQUE"
      },
      "geometry": {
        "type": "Point",
        "coordinates": [
          -90.6647985,
          42.5006243
        ]
      }
    },
    {
      "type": "Feature",
      "properties": {
        "Water System Name": "DUMONT WATER SUPPLY",
        "Population Served": 1269,
        "City": "DUMONT"
      },
      "geometry": {
        "type": "Point",
        "coordinates": [
          -92.9731317,
          42.7501516
        ]
      }
    },
    {
      "type": "Feature",
      "properties": {
        "Water System Name": "DUNCOMBE WATER SUPPLY",
        "Population Served": 384,
        "City": "DUNCOMBE"
      },
      "geometry": {
        "type": "Point",
        "coordinates": [
          -93.993355,
          42.4705006
        ]
      }
    },
    {
      "type": "Feature",
      "properties": {
        "Water System Name": "DUNKERTON MUNI WATER SUPPLY",
        "Population Served": 842,
        "City": "DUNKERTON"
      },
      "geometry": {
        "type": "Point",
        "coordinates": [
          -92.1617736,
          42.5718525
        ]
      }
    },
    {
      "type": "Feature",
      "properties": {
        "Water System Name": "DUNLAP WATER SUPPLY",
        "Population Served": 1222,
        "City": "DUNLAP"
      },
      "geometry": {
        "type": "Point",
        "coordinates": [
          -95.6006149,
          41.8541894
        ]
      }
    },
    {
      "type": "Feature",
      "properties": {
        "Water System Name": "DURANT WATER SUPPLY",
        "Population Served": 1871,
        "City": "DURANT"
      },
      "geometry": {
        "type": "Point",
        "coordinates": [
          -90.9107038,
          41.5997498
        ]
      }
    },
    {
      "type": "Feature",
      "properties": {
        "Water System Name": "DYERSVILLE MUNICIPAL WATER CO",
        "Population Served": 4477,
        "City": "DYERSVILLE"
      },
      "geometry": {
        "type": "Point",
        "coordinates": [
          -91.1211058,
          42.4844602
        ]
      }
    },
    {
      "type": "Feature",
      "properties": {
        "Water System Name": "DYSART WATER SUPPLY",
        "Population Served": 1281,
        "City": "DYSART"
      },
      "geometry": {
        "type": "Point",
        "coordinates": [
          -92.3062052,
          42.1709373
        ]
      }
    },
    {
      "type": "Feature",
      "properties": {
        "Water System Name": "EAGLE GROVE WATER SUPPLY",
        "Population Served": 3601,
        "City": "EAGLE GROVE"
      },
      "geometry": {
        "type": "Point",
        "coordinates": [
          -93.9046225,
          42.6641418
        ]
      }
    },
    {
      "type": "Feature",
      "properties": {
        "Water System Name": "EAGLE LANE CORPORATION",
        "Population Served": 53,
        "City": "BLUE GRASS"
      },
      "geometry": {
        "type": "Point",
        "coordinates": [
          -90.7659148,
          41.5097808
        ]
      }
    },
    {
      "type": "Feature",
      "properties": {
        "Water System Name": "EAGLE RIDGE",
        "Population Served": 1005,
        "City": "MARION"
      },
      "geometry": {
        "type": "Point",
        "coordinates": [
          -91.5987335,
          42.0329753
        ]
      }
    },
    {
      "type": "Feature",
      "properties": {
        "Water System Name": "EARLHAM MUNICIPAL WATERWORKS",
        "Population Served": 1420,
        "City": "EARLHAM"
      },
      "geometry": {
        "type": "Point",
        "coordinates": [
          -94.1229136,
          41.4914439
        ]
      }
    },
    {
      "type": "Feature",
      "properties": {
        "Water System Name": "EARLING WATER SUPPLY",
        "Population Served": 397,
        "City": "EARLING"
      },
      "geometry": {
        "type": "Point",
        "coordinates": [
          -95.4175851,
          41.7752001
        ]
      }
    },
    {
      "type": "Feature",
      "properties": {
        "Water System Name": "EARLVILLE MUNI WATER SUPPLY",
        "Population Served": 724,
        "City": "EARLVILLE"
      },
      "geometry": {
        "type": "Point",
        "coordinates": [
          -91.2723606,
          42.4816229
        ]
      }
    },
    {
      "type": "Feature",
      "properties": {
        "Water System Name": "EARLY MUNICIPAL WATER SUPPLY",
        "Population Served": 587,
        "City": "EARLY"
      },
      "geometry": {
        "type": "Point",
        "coordinates": [
          -95.1523131,
          42.4613432
        ]
      }
    },
    {
      "type": "Feature",
      "properties": {
        "Water System Name": "EAST SIDE ACRES",
        "Population Served": 70,
        "City": "MOVILLE"
      },
      "geometry": {
        "type": "Point",
        "coordinates": [
          -96.072453,
          42.4888404
        ]
      }
    },
    {
      "type": "Feature",
      "properties": {
        "Water System Name": "EDDYVILLE MUNI WATER DEPT",
        "Population Served": 1029,
        "City": "EDDYVILLE"
      },
      "geometry": {
        "type": "Point",
        "coordinates": [
          -92.6381659,
          41.1561503
        ]
      }
    },
    {
      "type": "Feature",
      "properties": {
        "Water System Name": "EDGEWOOD WATER SUPPLY",
        "Population Served": 939,
        "City": "EDGEWOOD"
      },
      "geometry": {
        "type": "Point",
        "coordinates": [
          -91.4011118,
          42.6444914
        ]
      }
    },
    {
      "type": "Feature",
      "properties": {
        "Water System Name": "EIRUSS DROESSLERS",
        "Population Served": 158,
        "City": "BELLEVUE"
      },
      "geometry": {
        "type": "Point",
        "coordinates": [
          -90.4230824,
          42.2587152
        ]
      }
    },
    {
      "type": "Feature",
      "properties": {
        "Water System Name": "ELBERON WATER SUPPLY",
        "Population Served": 184,
        "City": "ELBERON"
      },
      "geometry": {
        "type": "Point",
        "coordinates": [
          -92.3170976,
          42.0058419
        ]
      }
    },
    {
      "type": "Feature",
      "properties": {
        "Water System Name": "ELDON WATER SUPPLY",
        "Population Served": 927,
        "City": "ELDON"
      },
      "geometry": {
        "type": "Point",
        "coordinates": [
          -92.221951,
          40.918054
        ]
      }
    },
    {
      "type": "Feature",
      "properties": {
        "Water System Name": "ELDORA WATER SUPPLY",
        "Population Served": 2663,
        "City": "ELDORA"
      },
      "geometry": {
        "type": "Point",
        "coordinates": [
          -93.099609,
          42.3606883
        ]
      }
    },
    {
      "type": "Feature",
      "properties": {
        "Water System Name": "ELDRIDGE WATER SUPPLY",
        "Population Served": 6726,
        "City": "ELDRIDGE"
      },
      "geometry": {
        "type": "Point",
        "coordinates": [
          -90.5846035,
          41.6580467
        ]
      }
    },
    {
      "type": "Feature",
      "properties": {
        "Water System Name": "ELGIN MUNICIPAL WATER SUPPLY",
        "Population Served": 685,
        "City": "ELGIN"
      },
      "geometry": {
        "type": "Point",
        "coordinates": [
          -91.6297632,
          42.9574845
        ]
      }
    },
    {
      "type": "Feature",
      "properties": {
        "Water System Name": "ELKADER MUNI WATER DEPT",
        "Population Served": 1209,
        "City": "ELKADER"
      },
      "geometry": {
        "type": "Point",
        "coordinates": [
          -91.4040921,
          42.854533
        ]
      }
    },
    {
      "type": "Feature",
      "properties": {
        "Water System Name": "ELKHART WATER SUPPLY",
        "Population Served": 882,
        "City": "ELKHART"
      },
      "geometry": {
        "type": "Point",
        "coordinates": [
          -93.5240077,
          41.7934004
        ]
      }
    },
    {
      "type": "Feature",
      "properties": {
        "Water System Name": "ELK HORN MUNI WATER WORKS",
        "Population Served": 601,
        "City": "ELK HORN"
      },
      "geometry": {
        "type": "Point",
        "coordinates": [
          -95.0603232,
          41.591655
        ]
      }
    },
    {
      "type": "Feature",
      "properties": {
        "Water System Name": "ELK RUN HEIGHTS WATER SUPPLY",
        "Population Served": 1069,
        "City": "ELK RUN HEIGHTS"
      },
      "geometry": {
        "type": "Point",
        "coordinates": [
          -92.2616129,
          42.4690925
        ]
      }
    },
    {
      "type": "Feature",
      "properties": {
        "Water System Name": "ELLIOTT WATER SUPPLY",
        "Population Served": 345,
        "City": "ELLIOTT"
      },
      "geometry": {
        "type": "Point",
        "coordinates": [
          -95.1626524,
          41.1491865
        ]
      }
    },
    {
      "type": "Feature",
      "properties": {
        "Water System Name": "ELLSWORTH PUBLIC WATER SUPPLY",
        "Population Served": 514,
        "City": "ELLSWORTH"
      },
      "geometry": {
        "type": "Point",
        "coordinates": [
          -93.5786963,
          42.3120964
        ]
      }
    },
    {
      "type": "Feature",
      "properties": {
        "Water System Name": "ELMA WATER SUPPLY",
        "Population Served": 505,
        "City": "ELMA"
      },
      "geometry": {
        "type": "Point",
        "coordinates": [
          -92.4363401,
          43.2442467
        ]
      }
    },
    {
      "type": "Feature",
      "properties": {
        "Water System Name": "ELY WATER SUPPLY",
        "Population Served": 2328,
        "City": "ELY"
      },
      "geometry": {
        "type": "Point",
        "coordinates": [
          -91.5854027,
          41.8726859
        ]
      }
    },
    {
      "type": "Feature",
      "properties": {
        "Water System Name": "EMERSON WATER DEPARTMENT",
        "Population Served": 412,
        "City": "EMERSON"
      },
      "geometry": {
        "type": "Point",
        "coordinates": [
          -95.40214,
          41.017241
        ]
      }
    },
    {
      "type": "Feature",
      "properties": {
        "Water System Name": "EMMETSBURG MUNICIPAL WATER DEPARTMENT",
        "Population Served": 3706,
        "City": "EMMETSBURG"
      },
      "geometry": {
        "type": "Point",
        "coordinates": [
          -94.6781897,
          43.1108076
        ]
      }
    },
    {
      "type": "Feature",
      "properties": {
        "Water System Name": "EPWORTH WATER SUPPLY",
        "Population Served": 2023,
        "City": "EPWORTH"
      },
      "geometry": {
        "type": "Point",
        "coordinates": [
          -90.9320766,
          42.4450016
        ]
      }
    },
    {
      "type": "Feature",
      "properties": {
        "Water System Name": "ESSEX WATER SUPPLY",
        "Population Served": 722,
        "City": "ESSEX"
      },
      "geometry": {
        "type": "Point",
        "coordinates": [
          -95.307168,
          40.8333176
        ]
      }
    },
    {
      "type": "Feature",
      "properties": {
        "Water System Name": "ESTHERVILLE WATER TREATMENT PLANT",
        "Population Served": 5904,
        "City": "ESTHERVILLE"
      },
      "geometry": {
        "type": "Point",
        "coordinates": [
          -94.8363599,
          43.4026638
        ]
      }
    },
    {
      "type": "Feature",
      "properties": {
        "Water System Name": "EVANSDALE WATER WORKS",
        "Population Served": 4561,
        "City": "EVANSDALE"
      },
      "geometry": {
        "type": "Point",
        "coordinates": [
          -92.288411,
          42.4771838
        ]
      }
    },
    {
      "type": "Feature",
      "properties": {
        "Water System Name": "EVERLY WATER SUPPLY",
        "Population Served": 575,
        "City": "EVERLY"
      },
      "geometry": {
        "type": "Point",
        "coordinates": [
          -95.3271691,
          43.1602693
        ]
      }
    },
    {
      "type": "Feature",
      "properties": {
        "Water System Name": "EWING TRACE MHC",
        "Population Served": 455,
        "City": "DES MOINES"
      },
      "geometry": {
        "type": "Point",
        "coordinates": [
          -93.6249494,
          41.5868654
        ]
      }
    },
    {
      "type": "Feature",
      "properties": {
        "Water System Name": "EXIRA WATER DEPT",
        "Population Served": 764,
        "City": "EXIRA"
      },
      "geometry": {
        "type": "Point",
        "coordinates": [
          -94.8757758,
          41.5905324
        ]
      }
    },
    {
      "type": "Feature",
      "properties": {
        "Water System Name": "FAIRBANK WATER SUPPLY",
        "Population Served": 1111,
        "City": "FAIRBANK"
      },
      "geometry": {
        "type": "Point",
        "coordinates": [
          -92.0488762,
          42.639211
        ]
      }
    },
    {
      "type": "Feature",
      "properties": {
        "Water System Name": "FAIRFAX WATER SUPPLY",
        "Population Served": 2828,
        "City": "FAIRFAX"
      },
      "geometry": {
        "type": "Point",
        "coordinates": [
          -91.7810132,
          41.9194471
        ]
      }
    },
    {
      "type": "Feature",
      "properties": {
        "Water System Name": "FAIRFIELD ESTATES MOBILE HOME PARK",
        "Population Served": 140,
        "City": "FAIRFIELD"
      },
      "geometry": {
        "type": "Point",
        "coordinates": [
          -91.9630039,
          41.0072342
        ]
      }
    },
    {
      "type": "Feature",
      "properties": {
        "Water System Name": "FAIRFIELD WATER SUPPLY",
        "Population Served": 9416,
        "City": "FAIRFIELD"
      },
      "geometry": {
        "type": "Point",
        "coordinates": [
          -91.9630039,
          41.0072342
        ]
      }
    },
    {
      "type": "Feature",
      "properties": {
        "Water System Name": "FAIRVIEW TERRRACE MOBILE HOME PARK LLC",
        "Population Served": 72,
        "City": "ANAMOSA"
      },
      "geometry": {
        "type": "Point",
        "coordinates": [
          -91.2851594,
          42.1083371
        ]
      }
    },
    {
      "type": "Feature",
      "properties": {
        "Water System Name": "FAR HORIZONS SUBDIVISION",
        "Population Served": 80,
        "City": "IOWA CITY"
      },
      "geometry": {
        "type": "Point",
        "coordinates": [
          -91.5299106,
          41.6612561
        ]
      }
    },
    {
      "type": "Feature",
      "properties": {
        "Water System Name": "FARLEY WATER SUPPLY",
        "Population Served": 1766,
        "City": "FARLEY"
      },
      "geometry": {
        "type": "Point",
        "coordinates": [
          -91.0063067,
          42.4428009
        ]
      }
    },
    {
      "type": "Feature",
      "properties": {
        "Water System Name": "FARMERSBURG WATERWORKS",
        "Population Served": 276,
        "City": "FARMERSBURG"
      },
      "geometry": {
        "type": "Point",
        "coordinates": [
          -91.3678302,
          42.9584306
        ]
      }
    },
    {
      "type": "Feature",
      "properties": {
        "Water System Name": "FARMINGTON WATER SUPPLY",
        "Population Served": 579,
        "City": "FARMINGTON"
      },
      "geometry": {
        "type": "Point",
        "coordinates": [
          -91.7416121,
          40.6398192
        ]
      }
    },
    {
      "type": "Feature",
      "properties": {
        "Water System Name": "FARNHAMVILLE WATER SUPPLY",
        "Population Served": 383,
        "City": "FARNHAMVILLE"
      },
      "geometry": {
        "type": "Point",
        "coordinates": [
          -94.403859,
          42.2760896
        ]
      }
    },
    {
      "type": "Feature",
      "properties": {
        "Water System Name": "FARRAGUT WATER SUPPLY",
        "Population Served": 490,
        "City": "FARRAGUT"
      },
      "geometry": {
        "type": "Point",
        "coordinates": [
          -95.480941,
          40.7192038
        ]
      }
    },
    {
      "type": "Feature",
      "properties": {
        "Water System Name": "FASHIONABLE MEADOWS",
        "Population Served": 40,
        "City": "DAVENPORT"
      },
      "geometry": {
        "type": "Point",
        "coordinates": [
          -90.5770967,
          41.5235808
        ]
      }
    },
    {
      "type": "Feature",
      "properties": {
        "Water System Name": "FAYETTE WATER SUPPLY",
        "Population Served": 1256,
        "City": "FAYETTE"
      },
      "geometry": {
        "type": "Point",
        "coordinates": [
          -91.802268,
          42.8433022
        ]
      }
    },
    {
      "type": "Feature",
      "properties": {
        "Water System Name": "FENTON MUNICIPAL WATER SUPPLY",
        "Population Served": 271,
        "City": "FENTON"
      },
      "geometry": {
        "type": "Point",
        "coordinates": [
          -94.4274248,
          43.2188823
        ]
      }
    },
    {
      "type": "Feature",
      "properties": {
        "Water System Name": "FERTILE MUNICIPAL WATER",
        "Population Served": 305,
        "City": "FERTILE"
      },
      "geometry": {
        "type": "Point",
        "coordinates": [
          -93.4201333,
          43.2640892
        ]
      }
    },
    {
      "type": "Feature",
      "properties": {
        "Water System Name": "FISHER WELL OWNERS ASSOCIATION",
        "Population Served": 80,
        "City": "SWISHER"
      },
      "geometry": {
        "type": "Point",
        "coordinates": [
          -91.6929702,
          41.8456224
        ]
      }
    },
    {
      "type": "Feature",
      "properties": {
        "Water System Name": "FLOYD MUNI WATER SUPPLY",
        "Population Served": 313,
        "City": "FLOYD"
      },
      "geometry": {
        "type": "Point",
        "coordinates": [
          -92.7365926,
          43.1278951
        ]
      }
    },
    {
      "type": "Feature",
      "properties": {
        "Water System Name": "FONDA WATER SUPPLY",
        "Population Served": 636,
        "City": "FONDA"
      },
      "geometry": {
        "type": "Point",
        "coordinates": [
          -94.8459922,
          42.5813721
        ]
      }
    },
    {
      "type": "Feature",
      "properties": {
        "Water System Name": "FONTANELLE WATER WORKS",
        "Population Served": 676,
        "City": "FONTANELLE"
      },